geo_id;city;station;ascii_station;latitude;longitude
716868;Óbög;Óbög Vasúti Megállóhely;Obog Vasuti Megallohely;46.9833;20.1167
3044815;Szebény;Szebény Vasúti Megállóhely;Szebeny Vasuti Megallohely;46.15;18.6
716525;Pátroha;Pátroha Vasútállomás;Patroha Vasutallomas;48.1667;22.0
3050100;Kisbárapáti;Kisbárapáti Vasútállomás;Kisbarapati Vasutallomas;46.6167;17.8667
3048106;Mezőfalva;Mezőfalva Vasútállomás;Mezofalva Vasutallomas;46.9041;18.8088
3047621;Nagymányok;Nagymányok Vasútállomás;Nagymanyok Vasutallomas;46.2833;18.4667
717579;Miskolc-Tiszai;Miskolc-Tiszai Pályaudvar;Miskolc-Tiszai Palyaudvar;48.1;20.8167
3045395;Selyp;Selyp Vasútállomás;Selyp Vasutallomas;47.7667;19.6833
720987;Fehérgyarmat;Fehérgyarmat Vasútállomás;Fehergyarmat Vasutallomas;47.9833;22.5333
3056433;Acsád;Acsád Vasútállomás;Acsad Vasutallomas;47.3073;16.7342
3043670;Türje;Türje Vasúti Megállóhely;Turje Vasuti Megallohely;46.9833;17.0833
719553;Kaba;Kaba Vasútállomás;Kaba Vasutallomas;47.3667;21.25
3045501;Sárpilis-Várdomb;Sárpilis-Várdomb Vasútállomás;Sarpilis-Vardomb Vasutallomas;46.244;18.72
3043017;Vecsés;Vecsés Vasútállomás;Vecses Vasutallomas;47.4167;19.25
715421;Szeghalom;Szeghalom Vasútállomás;Szeghalom Vasutallomas;47.0167;21.15
715426;Szeged-Rókus;Szeged-Rókus Vasútállomás;Szeged-Rokus Vasutallomas;46.267;20.1263
720601;Garadna;Garadna Vasútállomás;Garadna Vasutallomas;48.1167;20.5667
3054443;Csák;Csákánydoroszló Vasútállomás;Csakanydoroszlo Vasutallomas;46.9667;16.5167
720291;Hajdúböszörmény;Hajdúböszörmény Vasútállomás;Hajduboszormeny Vasutallomas;47.6667;21.5333
723043;Abádszalók;Abádszalók Vasútállomás;Abadszalok Vasutallomas;47.45;20.55
722707;Bajonta;Bajonta Vasútállomás;Bajonta Vasutallomas;47.3167;21.7667
3050635;Kaposfő;Kaposfő Vasúti Megállóhely;Kaposfo Vasuti Megallohely;46.3667;17.6667
718894;Kismacs;Kismacs Vasúti Megállóhely;Kismacs Vasuti Megallohely;47.55;21.55
718327;Kungyalu;Kungyalu Vasúti Megállóhely;Kungyalu Vasuti Megallohely;46.9167;20.2667
3052095;Gyál;Gyál Vasútállomás;Gyal Vasutallomas;47.3833;19.2167
3049427;Körmend;Körmend Vasútállomás;Kormend Vasutallomas;47.0167;16.6
721830;Császárszállás;Császárszállás Vasútállomás;Csaszarszallas Vasutallomas;47.8833;21.7167
3043297;Uzsabánya;Uzsabánya Alsó Vasúti Megállóhely;Uzsabanya Also Vasuti Megallohely;46.9;17.35
3055208;Bélatelep;Bélatelep Vasúti Megállóhely;Belatelep Vasuti Megallohely;46.7333;17.55
3045061;Sumony;Sumony Vasútállomás;Sumony Vasutallomas;45.9667;17.9
3049455;Kopolya;Kopolya Vasúti Megállóhely;Kopolya Vasuti Megallohely;46.4;19.4833
3045211;Somogyvár;Somogyvár Vasútállomás;Somogyvar Vasutallomas;46.5827;17.6313
3046437;Pestszentimre;Pestszentimre Felső Vasúti Megállóhely;Pestszentimre Felso Vasuti Megallohely;47.414;19.1734
3048316;Mátéházapuszta;Mátéházapuszta Vasútállomás;Matehazapuszta Vasutallomas;46.1501;19.063
3052365;Gátér;Gátér Vasútállomás;Gater Vasutallomas;46.6833;19.9667
3045563;Sárbogárd;Sárbogárd Vasútállomás;Sarbogard Vasutallomas;46.8959;18.6119
716371;Pocsaj-Esztár;Pocsaj-Esztár Vasútállomás;Pocsaj-Esztar Vasutallomas;47.3;21.7833
3052499;Fülöpszállás;Fülöpszállás Vasútállomás;Fulopszallas Vasutallomas;46.8333;19.25
718980;Kisfástanya;Kisfástanya Vasútállomás;Kisfastanya Vasutallomas;47.9833;21.4833
722185;Bodrogolaszi;Bodrogolaszi Vasúti Megállóhely;Bodrogolaszi Vasuti Megallohely;48.2833;21.5167
718475;Kötegyán;Kötegyán Vasútállomás;Kotegyan Vasutallomas;46.75;21.4833
3054636;Kelenföld;Kelenföld station;Kelenfoeld station;47.4651;19.0216
715919;Sándor;Sándoros Vasúti Megállóhely;Sandoros Vasuti Megallohely;47.3333;21.7167
3054629;Budatétény;Budatétény Vasúti Megállóhely;Budateteny Vasuti Megallohely;47.4052;19.0164
718524;Körösnagyharsány;Körösnagyharsány Vasúti Megállóhely;Korosnagyharsany Vasuti Megallohely;47.0167;21.6667
715866;Sárospatak;Sárospatak Vasútállomás;Sarospatak Vasutallomas;48.3333;21.5833
3042650;Zákány;Zákány Vasútállomás;Zakany Vasutallomas;46.25;16.95
719853;Hosszúhát;Hosszúhát Vasúti Megállóhely;Hosszuhat Vasuti Megallohely;47.2333;21.1
715943;Sajószentpéter;Sajószentpéter Vasútállomás;Sajoszentpeter Vasutallomas;48.2167;20.7167
3049161;Kulcs;Kulcs Vasúti Megállóhely;Kulcs Vasuti Megallohely;47.05;18.9
3053072;Farmos;Farmos Vasúti Megállóhely;Farmos Vasuti Megallohely;47.35;19.85
3055900;Apc-Zagyvaszántó;Apc-Zagyvaszántó Vasútállomás;Apc-Zagyvaszanto Vasutallomas;47.7917;19.6676
3055980;Andráshida;Andráshida Vasútállomás;Andrashida Vasutallomas;46.8667;16.8
3050085;Kisbér;Kisbér Vasútállomás;Kisber Vasutallomas;47.5;18.0167
3054637;Budapest-Józsefváros;Budapest-Józsefváros Vasútállomás;Budapest-Jozsefvaros Vasutallomas;47.4908;19.0911
3055541;Balatonrendes;Balatonrendes Vasúti Megállóhely;Balatonrendes Vasuti Megallohely;46.8333;17.5833
3049226;Középrigóc;Középrigóc Vasútállomás;Kozeprigoc Vasutallomas;45.971;17.5278
718106;Levelek-Magy;Levelek-Magy Vasúti Megállóhely;Levelek-Magy Vasuti Megallohely;47.95;21.9833
720760;Fony;Fony Vasúti Megállóhely;Fony Vasuti Megallohely;48.4;21.2333
3046243;Polgárdi-Tekerespuszta;Polgárdi-Tekerespuszta Vasúti Megállóhely;Polgardi-Tekerespuszta Vasuti Megallohely;47.0333;18.3167
3049710;Kistelek;Kistelek Vasútállomás;Kistelek Vasutallomas;46.4667;19.9667
3054812;Bonnya;Bonnya Vasútállomás;Bonnya Vasutallomas;46.6106;17.9102
717129;Nagyszénás;Nagyszénás Vasútállomás;Nagyszenas Vasutallomas;46.6833;20.6667
3049820;Kisnémedi;Kisnémedi Vasúti Megállóhely;Kisnemedi Vasuti Megallohely;47.7167;19.2667
3053150;Eternitgyár;Eternitgyár Vasútállomás;Eternitgyar Vasutallomas;47.7667;18.5333
3044838;Szár;Szár Vasúti Megállóhely;Szar Vasuti Megallohely;47.4777;18.5348
3046383;Petőfiszállás;Petőfiszállás Vasútállomás;Petofiszallas Vasutallomas;46.6167;19.8667
720937;Feketenagytanya;Feketenagytanya Vasúti Megállóhely;Feketenagytanya Vasuti Megallohely;47.15;21.6667
3056444;Abda;Abda Vasútállomás;Abda Vasutallomas;47.7;17.55
721932;Center;Center Vasútállomás;Center Vasutallomas;48.25;20.35
3046677;Pápa;Pápa Vasútállomás;Papa Vasutallomas;47.3333;17.45
3046982;Öreglak;Öreglak Vasútállomás;Oreglak Vasutallomas;46.6167;17.6333
3056106;Alsónemesapáti;Alsónemesapáti Vasúti Megállóhely;Alsonemesapati Vasuti Megallohely;46.85;16.9333
3051880;Hajmáskér-Újtelep;Hajmáskér-Újtelep Vasúti Megállóhely;Hajmasker-Ujtelep Vasuti Megallohely;47.1479;18.0397
717321;Nagyhát;Nagyhát Vasútállomás;Nagyhat Vasutallomas;47.5833;21.4333
3052155;Gór;Gór Vasúti Megállóhely;Gor Vasuti Megallohely;47.3384;16.7734
8410967;Rábapatona;Rábapatona Vasúti Megállóhely;Rabapatona Vasuti Megallohely;47.649;17.4628
722287;Bicere;Bicere Vasútállomás;Bicere Vasutallomas;46.65;21.1667
718527;Körösladány;Körösladány Vasútállomás;Korosladany Vasutallomas;46.9667;21.0833
717668;Mezőberény;Mezőberény Vasútállomás;Mezobereny Vasutallomas;46.8167;21.0167
723011;Ágerdőmajor;Ágerdőmajor Vasútállomás;Agerdomajor Vasutallomas;47.7833;22.4333
718612;Kondoros;Kondoros Vasútállomás;Kondoros Vasutallomas;46.7667;20.7833
3050566;Kárász-Köblény;Kárász-Köblény Vasútállomás;Karasz-Kobleny Vasutallomas;46.2773;18.3123
719993;Hidasnémeti;Hidasnémeti Vasútállomás;Hidasnemeti Vasutallomas;48.5167;21.2333
716289;Pusztadomaháza;Pusztadomaháza Vasúti Megállóhely;Pusztadomahaza Vasuti Megallohely;47.5833;20.7333
3055549;Balatonlelle;Balatonlelle Vasúti Megállóhely;Balatonlelle Vasuti Megallohely;46.7833;17.7
3044210;Táborfalva;Táborfalva Vasútállomás;Taborfalva Vasutallomas;47.1;19.4833
3046518;Pécs-Gyárváros;Pécs-Gyárváros Vasúti Megállóhely;Pecs-Gyarvaros Vasuti Megallohely;46.0833;18.2833
3045835;Rév;Révfülöp Vasútállomás;Revfulop Vasutallomas;46.8333;17.6333
721229;Eger-Felnémet;Eger-Felnémet Vasútállomás;Eger-Felnemet Vasutallomas;47.95;20.3833
718594;Kónya;Kónya Vasúti Megállóhely;Konya Vasuti Megallohely;47.6;21.25
719673;Jánosszállás;Jánosszállás Vasúti Megállóhely;Janosszallas Vasuti Megallohely;46.3167;20.0667
3055626;Bakonysárkány;Bakonysárkány Vasútállomás;Bakonysarkany Vasutallomas;47.45;18.1
720684;Füzesbokor;Füzesbokor Vasúti Megállóhely;Fuzesbokor Vasuti Megallohely;47.9833;21.6667
717631;Mezőzombor;Mezőzombor Vasútállomás;Mezozombor Vasutallomas;48.1667;21.25
3047532;Nagyszentjános;Nagyszentjános Vasútállomás;Nagyszentjanos Vasutallomas;47.7167;17.8833
715122;Szolnok;Szolnok Vasútállomás;Szolnok Vasutallomas;47.1833;20.1667
3055567;Balatonföldvár;Balatonföldvár Vasúti Megállóhely;Balatonfoldvar Vasuti Megallohely;46.85;17.8833
3055573;Balatonfenyves;Balatonfenyves Vasútállomás;Balatonfenyves Vasutallomas;46.7167;17.5
722878;Ambrózfalva;Ambrózfalva Vasúti Megállóhely;Ambrozfalva Vasuti Megallohely;46.35;20.7333
720856;Felsőzsolca;Felsőzsolca Vasútállomás;Felsozsolca Vasutallomas;48.0833;20.8667
3049547;Kölesd-Alsótengelic;Kölesd-Alsótengelic Vasútállomás;Kolesd-Alsotengelic Vasutallomas;46.5378;18.6723
3053681;Diósjenő;Diósjenő Vasútállomás;Diosjeno Vasutallomas;47.9333;19.05
3055579;Balatonederics;Balatonederics Vasútállomás;Balatonederics Vasutallomas;46.7994;17.3866
3053512;Drégelyvár;Drégelyvár Vasúti Megállóhely;Dregelyvar Vasuti Megallohely;48.0026;19.0777
720725;Fülekipuszta;Fülekipuszta Vasúti Megállóhely;Fulekipuszta Vasuti Megallohely;47.2833;20.6833
3042543;Zichyújfalu;Zichyújfalu Vasútállomás;Zichyujfalu Vasutallomas;47.1333;18.6667
3056411;Adony;Adony Vasútállomás;Adony Vasutallomas;47.1;18.85
3048698;Ludányhalászi;Ludányhalászi Vasúti Megállóhely;Ludanyhalaszi Vasuti Megallohely;48.1321;19.5285
720325;Gyula-Jánoszug;Gyula-Jánoszug Vasúti Megállóhely;Gyula-Janoszug Vasuti Megallohely;46.65;21.1833
3045529;Sárkeresztúr;Sárkeresztúr Vasúti Megállóhely;Sarkeresztur Vasuti Megallohely;47.0167;18.55
3047343;Nógrádszakál;Nógrádszakál Vasútállomás;Nogradszakal Vasutallomas;48.1833;19.5333
717637;Mezőtárkány;Mezőtárkány Vasútállomás;Mezotarkany Vasutallomas;47.7333;20.4833
3042967;Veresegyház;Veresegyház Vasútállomás;Veresegyhaz Vasutallomas;47.65;19.2833
716942;Nyírbogdány;Nyírbogdány Vasútállomás;Nyirbogdany Vasutallomas;48.0833;21.8667
718935;Kishomok;Kishomok Vasúti Megállóhely;Kishomok Vasuti Megallohely;46.4;20.2833
3049877;Kiskunlacháza;Kiskunlacháza Vasútállomás;Kiskunlachaza Vasutallomas;47.1833;19.05
3044908;Szany-Rábaszentandrás;Szany-Rábaszentandrás Vasútállomás;Szany-Rabaszentandras Vasutallomas;47.4607;17.3152
3045934;Ravazd;Ravazd Vasúti Megállóhely;Ravazd Vasuti Megallohely;47.5296;17.7588
3049707;Kisterenye-Bányatelep;Kisterenye-Bányatelep Vasúti Megállóhely;Kisterenye-Banyatelep Vasuti Megallohely;48.0333;19.8333
8410977;Csap;Csapod Vasútállomás;Csapod Vasutallomas;47.5109;16.9157
3050428;Kecskemét-Parasztfőiskola;Kecskemét-Parasztfőiskola Vasúti Megállóhely;Kecskemet-Parasztfoiskola Vasuti Megallohely;46.9;19.7167
715528;Szalonna;Szalonna Vasútállomás;Szalonna Vasutallomas;48.45;20.7167
3045963;Rákospalota-Újpest;Rákospalota-Újpest Vasútállomás;Rakospalota-Ujpest Vasutallomas;47.5658;19.112
715881;Sarkad;Sarkad Vasútállomás;Sarkad Vasutallomas;46.7333;21.3833
720677;Füzesgyarmat;Füzesgyarmat Vasútállomás;Fuzesgyarmat Vasutallomas;47.1;21.2167
3042843;Vinye;Vinye Vasúti Megállóhely;Vinye Vasuti Megallohely;47.3667;17.8167
714773;Tiszaföldvár;Tiszaföldvár Vasútállomás;Tiszafoldvar Vasutallomas;46.9833;20.2833
3052225;Göd;Göd Vasútállomás;God Vasutallomas;47.7;19.15
721425;Derecske;Derecske Vasútállomás;Derecske Vasutallomas;47.3667;21.5833
3050966;Jánoshalma;Jánoshalma Vasútállomás;Janoshalma Vasutallomas;46.3;19.3333
722871;Andornaktálya;Andornaktálya Vasúti Megállóhely;Andornaktalya Vasuti Megallohely;47.85;20.4
3053227;Érd;Érd Vasútállomás;Erd Vasutallomas;47.3703;18.901
718908;Kisköre;Kisköre Vasútállomás;Kiskore Vasutallomas;47.5;20.4833
3050661;Kapitányság;Kapitányság Vasúti Megállóhely;Kapitanysag Vasuti Megallohely;46.4333;19.9833
3044308;Szombathely-Szőlős;Szombathely-Szőlős Vasúti Megállóhely;Szombathely-Szolos Vasuti Megallohely;47.2064;16.6419
3052232;Gödöllő;Gödöllő Vasútállomás;Godollo Vasutallomas;47.5833;19.3667
714338;Ürmös;Ürmöshát Vasúti Megállóhely;Urmoshat Vasuti Megallohely;47.2667;21.1
3054634;Budapest-Nyugati;Budapest-Nyugati Pályaudvar;Budapest-Nyugati Palyaudvar;47.5105;19.0571
3046851;Ostffyasszonyfa;Ostffyasszonyfa Vasútállomás;Ostffyasszonyfa Vasutallomas;47.2839;17.0243
3054921;Bodolyabér;Bodolyabér Vasúti Megállóhely;Bodolyaber Vasuti Megallohely;46.2;18.1333
720278;Hajdúszentgyörgy;Hajdúszentgyörgy Vasútállomás;Hajduszentgyorgy Vasutallomas;47.6167;21.5833
3043098;Városlőd;Városlőd Vasúti Megállóhely;Varoslod Vasuti Megallohely;47.1444;17.6531
721221;Egervár;Egervár Vasúti Megállóhely;Egervar Vasuti Megallohely;47.9;20.3833
3046128;Püspökmolnári;Püspökmolnári Vasútállomás;Puspokmolnari Vasutallomas;47.0852;16.7685
3053107;Farád;Farád Vasúti Megállóhely;Farad Vasuti Megallohely;47.5961;17.1962
715885;Sarkadkeresztúr;Sarkadkeresztúr Vasútállomás;Sarkadkeresztur Vasutallomas;46.8;21.4167
3046692;Pannonhalma;Pannonhalma Vasútállomás;Pannonhalma Vasutallomas;47.55;17.75
720636;Gajdospuszta;Gajdospuszta Vasúti Megállóhely;Gajdospuszta Vasuti Megallohely;46.35;20.4667
719266;Kelenc;Kelenc Vasúti Megállóhely;Kelenc Vasuti Megallohely;47.3333;21.2
3051131;Inárcs-Kakucs;Inárcs-Kakucs Vasútállomás;Inarcs-Kakucs Vasutallomas;47.25;19.3167
721308;Dombrád;Dombrád Vasútállomás;Dombrad Vasutallomas;48.2333;21.9167
3051523;Herceghalom;Herceghalom Vasútállomás;Herceghalom Vasutallomas;47.494;18.7486
3052007;Győrasszonyfa;Győrasszonyfa Vasútállomás;Gyorasszonyfa Vasutallomas;47.5;17.8
3048185;Mende;Mende Vasútállomás;Mende Vasutallomas;47.4333;19.45
3047688;Nagyigmánd-Bábolna;Nagyigmánd-Bábolna Vasútállomás;Nagyigmand-Babolna Vasutallomas;47.6667;18.05
3043751;Tósokberénd;Tósokberénd Vasúti Megállóhely;Tosokberend Vasuti Megallohely;47.0918;17.5333
3046464;Pereszteg;Pereszteg Vasúti Megállóhely;Pereszteg Vasuti Megallohely;47.5881;16.7209
719641;Jászkisér;Jászkisér Vasútállomás;Jaszkiser Vasutallomas;47.4667;20.2
717241;Nagylak;Nagylak Vasútállomás;Nagylak Vasutallomas;46.1667;20.7
3046198;Portelek;Portelek Vasúti Megállóhely;Portelek Vasuti Megallohely;47.4154;19.9608
3042857;Vilonya-Királyszentistván;Vilonya-Királyszentistván Vasúti Megállóhely;Vilonya-Kiralyszentistvan Vasuti Megallohely;47.1167;18.0667
6691854;Szemeretelep;Szemeretelep Vasúti Megállóhely;Szemeretelep Vasuti Megallohely;47.4434;19.2131
719402;Karcag-Ipartelep;Karcag-Ipartelep Vasúti Megállóhely;Karcag-Ipartelep Vasuti Megallohely;47.35;20.8833
720441;Gorzsa;Gorzsa Vasúti Megállóhely;Gorzsa Vasuti Megallohely;46.3667;20.4333
718536;Kórógy;Kórógyszentgyörgy Vasúti Megállóhely;Korogyszentgyorgy Vasuti Megallohely;46.5667;20.2167
3045964;Rákospalota-Kertváros;Rákospalota-Kertváros Vasúti Megállóhely;Rakospalota-Kertvaros Vasuti Megallohely;47.5833;19.1333
715417;Szegi;Szegi Vasúti Megállóhely;Szegi Vasuti Megallohely;48.2167;21.4
713930;Zagyvarékas;Zagyvarékas Vasúti Megállóhely;Zagyvarekas Vasuti Megallohely;47.25;20.1
3056095;Alsóörs;Alsóörs Vasútállomás;Alsoors Vasutallomas;46.9833;17.9833
3048592;Magyarkút-Verőce;Magyarkút-Verőcemaros Vasúti Megállóhely;Magyarkut-Verocemaros Vasuti Megallohely;47.8333;19.05
719417;Karácsond;Karácsond Vasútállomás;Karacsond Vasutallomas;47.7168;20.0447
3053767;Decs;Decs Vasútállomás;Decs Vasutallomas;46.2833;18.7667
3056425;Ács;Ács Vasútállomás;Acs Vasutallomas;47.7167;18.0
3052691;Fenékpuszta;Fenékpuszta Vasúti Megállóhely;Fenekpuszta Vasuti Megallohely;46.7167;17.25
715198;Szirmabesenyő;Szirmabesenyő Vasúti Megállóhely;Szirmabesenyo Vasuti Megallohely;48.1483;20.7827
3052810;Felsőméntelek;Felsőméntelek Vasúti Megállóhely;Felsomentelek Vasuti Megallohely;46.9862;19.5588
3055051;Bezenye;Bezenye Vasúti Megállóhely;Bezenye Vasuti Megallohely;47.9667;17.2167
716843;Ököritó;Ököritófülpös Vasúti Megállóhely;Okoritofulpos Vasuti Megallohely;47.9167;22.5
3044688;Szentdénes;Szentdénes Vasúti Megállóhely;Szentdenes Vasuti Megallohely;46.0333;17.9333
3055585;Balatonberény;Balatonberény Vasúti Megállóhely;Balatonbereny Vasuti Megallohely;46.7167;17.3167
3054635;Budapest-Keleti;Budapest-Keleti Pályaudvar;Budapest-Keleti Palyaudvar;47.5005;19.0831
717986;Macs;Macs Vasútállomás;Macs Vasutallomas;47.5667;21.4833
714147;Végegyháza;Végegyháza Vasúti Megállóhely;Vegegyhaza Vasuti Megallohely;46.3833;20.8833
3053024;Feked;Feked Vasúti Megállóhely;Feked Vasuti Megallohely;46.1502;18.5561
3052032;Gyöngyöshermán;Gyöngyöshermán Vasúti Megállóhely;Gyongyosherman Vasuti Megallohely;47.2028;16.6571
714741;Tiszalöki Vízművek;Tiszalöki Vízművek Vasúti Megállóhely;Tiszaloki Vizmuvek Vasuti Megallohely;48.0167;21.3
3047677;Nagykanizsa;Nagykanizsa Vasútállomás;Nagykanizsa Vasutallomas;46.45;16.9833
3048251;Mecsekjánosi;Mecsekjánosi Vasútállomás;Mecsekjanosi Vasutallomas;46.2167;18.25
3046714;Palota;Palotabozsok Vasútállomás;Palotabozsok Vasutallomas;46.1333;18.65
3045293;Solymár;Solymár Vasútállomás;Solymar Vasutallomas;47.596;18.9495
721465;Debrecen-Tégláskert;Debrecen-Tégláskert Vasúti Megállóhely;Debrecen-Teglaskert Vasuti Megallohely;47.5027;21.6084
714420;Újszász;Újszász Vasútállomás;Ujszasz Vasutallomas;47.2833;20.0667
714735;Tiszanagyfalu;Tiszanagyfalu Vasúti Megállóhely;Tiszanagyfalu Vasuti Megallohely;48.1;21.5167
3054003;Csóka;Csókakő Vasúti Megállóhely;Csokako Vasuti Megallohely;47.3333;18.2333
716261;Pusztaszakállas;Pusztaszakállas Vasúti Megállóhely;Pusztaszakallas Vasuti Megallohely;47.1833;20.5333
721426;Derecske-Vásártér;Derecske-Vásártér Vasúti Megállóhely;Derecske-Vasarter Vasuti Megallohely;47.35;21.5833
3055195;Beled;Beled Vasútállomás;Beled Vasutallomas;47.4666;17.0846
718889;Kismargita;Kismargita Vasúti Megállóhely;Kismargita Vasuti Megallohely;47.7167;21.1167
3053400;Ecser;Ecser Vasúti Megállóhely;Ecser Vasuti Megallohely;47.4412;19.3141
3055193;Beleg;Beleg Vasútállomás;Beleg Vasutallomas;46.3167;17.4167
3056406;Adorján;Adorjánpuszta Vasúti Megállóhely;Adorjanpuszta Vasuti Megallohely;46.6333;18.35
3051182;Iklódbördőce;Iklódbördőce Vasúti Megállóhely;Iklodbordoce Vasuti Megallohely;46.6;16.6167
715216;Szilvásvárad-Szalajkavölgy;Szilvásvárad-Szalajkavölgy Vasúti Megállóhely;Szilvasvarad-Szalajkavolgy Vasuti Megallohely;48.1;20.3833
3050202;Kéthely;Kéthely Vasútállomás;Kethely Vasutallomas;46.65;17.4167
717719;Méhkerék;Méhkerék Vasúti Megállóhely;Mehkerek Vasuti Megallohely;46.7833;21.4667
719961;Hódmezővásárhely;Hódmezővásárhely Vasútállomás;Hodmezovasarhely Vasutallomas;46.4167;20.35
3055987;Andocs;Andocs Vasúti Megállóhely;Andocs Vasuti Megallohely;46.6465;17.8928
721207;Egyek;Egyek Vasútállomás;Egyek Vasutallomas;47.6333;20.8833
3046196;Porva-Csesznek;Porva-Csesznek Vasútállomás;Porva-Csesznek Vasutallomas;47.3309;17.8404
718590;Kopáncs;Kopáncs Vasútállomás;Kopancs Vasutallomas;46.3833;20.25
718009;Ludas;Ludas Vasútállomás;Ludas Vasutallomas;47.7167;20.1
3046507;Pécsudvard;Pécsudvard Vasútállomás;Pecsudvard Vasutallomas;46.0167;18.2833
719889;Hortobágyi Halastó;Hortobágyi Halastó Vasútállomás;Hortobagyi Halasto Vasutallomas;47.6;21.0833
3044189;Tajó;Tajó Vasútállomás;Tajo Vasutallomas;46.4667;19.6833
722618;Balsa;Balsa Vasútállomás;Balsa Vasutallomas;48.1667;21.5667
717823;Máriapócs;Máriapócs Vasútállomás;Mariapocs Vasutallomas;47.85;22.0167
717654;Mezőkovácsháza;Mezőkovácsháza Vasútállomás;Mezokovacshaza Vasutallomas;46.4;20.9167
3056013;Alsóúrrét;Alsóúrrét Vasúti Megállóhely;Alsourret Vasuti Megallohely;46.9;19.7833
3053473;Dunakeszi;Dunakeszi Vasútállomás;Dunakeszi Vasutallomas;47.6333;19.1333
718536;Kórógy;Kórógyszentgyörgy Vasúti Megállóhely;Korogyszentgyorgy Vasuti Megallohely;46.5667;20.2167
716697;Őszeszék;Őszeszék Vasúti Megállóhely;Oszeszek Vasuti Megallohely;46.3833;20.0167
3047177;Okorág-Kárászpuszta;Okorág-Kárászpuszta Vasúti Megállóhely;Okorag-Karaszpuszta Vasuti Megallohely;45.9333;17.8667
3048593;Magyarkút;Magyarkút Vasúti Megállóhely;Magyarkut Vasuti Megallohely;47.8481;19.0473
714850;Tenyőszállás;Tenyőszállás Vasúti Megállóhely;Tenyoszallas Vasuti Megallohely;47.15;20.35
3044423;Szil-Sopronnémeti;Szil-Sopronnémeti Vasútállomás;Szil-Sopronnemeti Vasutallomas;47.533;17.209
720001;Heves;Heves Vasútállomás;Heves Vasutallomas;47.6167;20.3167
3043983;Tengelic;Tengelic Vasúti Megállóhely;Tengelic Vasuti Megallohely;46.5167;18.7167
3046341;Pilis;Pilis Vasútállomás;Pilis Vasutallomas;47.2667;19.55
720254;Haláp;Haláp Vasúti Megállóhely;Halap Vasuti Megallohely;47.5167;21.8167
3044226;Szurdokpüspöki;Szurdokpüspöki Vasútállomás;Szurdokpuspoki Vasutallomas;47.85;19.6833
718264;Kútvölgy;Kútvölgyi Gyógyintézet Vasútállomás;Kutvolgyi Gyogyintezet Vasutallomas;46.4667;20.4667
3052509;Füle;Füle Vasúti Megállóhely;Fule Vasuti Megallohely;47.05;18.25
717698;Méra;Méra Vasúti Megállóhely;Mera Vasuti Megallohely;48.3667;21.1333
3048601;Magyarhertelend;Magyarhertelend Vasúti Megállóhely;Magyarhertelend Vasuti Megallohely;46.2;18.1667
3050626;Kaposmérő;Kaposmérő Vasútállomás;Kaposmero Vasutallomas;46.3667;17.7
3050624;Kapospula;Kapospula Vasúti Megállóhely;Kapospula Vasuti Megallohely;46.3833;18.1
722497;Bashalom;Bashalom Vasúti Megállóhely;Bashalom Vasuti Megallohely;48.0333;21.5167
3052905;Felsőgalla;Felsőgalla Vasútállomás;Felsogalla Vasutallomas;47.55;18.45
717243;Nagylaki Kendergyár;Nagylaki Kendergyár Vasúti Megállóhely;Nagylaki Kendergyar Vasuti Megallohely;46.1833;20.7167
720504;Golop;Golop Vasúti Megállóhely;Golop Vasuti Megallohely;48.25;21.2
723027;Abony;Abony Vasútállomás;Abony Vasutallomas;47.1667;20.0167
3049313;Kővágóér;Kővágóér Vasúti Megállóhely;Kovagoer Vasuti Megallohely;46.65;19.8167
3051190;Ihász;Ihász Vasútállomás;Ihasz Vasutallomas;47.3812;17.4011
3052421;Galgaguta;Galgaguta Vasútállomás;Galgaguta Vasutallomas;47.85;19.3833
3050602;Káptalanfüred;Káptalanfüred Vasúti Megállóhely;Kaptalanfured Vasuti Megallohely;47.0119;18.0057
3044882;Szárföld;Szárföld Vasútállomás;Szarfold Vasutallomas;47.5892;17.1224
720052;Hékéd;Hékéd Vasúti Megállóhely;Heked Vasuti Megallohely;46.6833;20.2667
719638;Jászladány;Jászladány Vasútállomás;Jaszladany Vasutallomas;47.3667;20.15
722435;Békéscsaba;Békéscsaba Vasútállomás;Bekescsaba Vasutallomas;46.6833;21.0833
3042986;Véménd;Véménd Vasútállomás;Vemend Vasutallomas;46.15;18.6167
717525;Mónosbél;Mónosbél Vasútállomás;Monosbel Vasutallomas;48.05;20.3333
714592;Tornyos;Tornyospálca Vasútállomás;Tornyospalca Vasutallomas;48.2667;22.2
3050617;Kaposújlak;Kaposújlak Vasúti Megállóhely;Kaposujlak Vasuti Megallohely;46.3671;17.7243
719690;Jám;Jámborhalom Vasúti Megállóhely;Jamborhalom Vasuti Megallohely;46.75;20.3
3056069;Alsórönök;Alsórönök Vasúti Megállóhely;Alsoronok Vasuti Megallohely;46.9667;16.3833
720845;Fényeslitke;Fényeslitke Vasútállomás;Fenyeslitke Vasutallomas;48.2667;22.1167
720269;Hajdúvölgy;Hajdúvölgy Vasúti Megállóhely;Hajduvolgy Vasuti Megallohely;46.65;20.6833
714264;Vámospércs;Vámospércs Vasútállomás;Vamospercs Vasutallomas;47.5167;21.9
718519;Körösszakál;Körösszakál Vasútállomás;Korosszakal Vasutallomas;47.0;21.6167
3050057;Kiscséripuszta;Kiscséripuszta Vasútállomás;Kiscseripuszta Vasutallomas;47.0468;18.3539
3045969;Rákoskert;Rákoskert Vasúti Megállóhely;Rakoskert Vasuti Megallohely;47.4569;19.2958
721557;Csorvás;Csorvás Vasútállomás;Csorvas Vasutallomas;46.6167;20.8333
716384;Piros;Piroska Vasúti Megállóhely;Piroska Vasuti Megallohely;47.15;20.1333
3047799;Nagybátony;Nagybátony Vasútállomás;Nagybatony Vasutallomas;47.9837;19.8211
3045299;Soltszentimre;Soltszentimre Vasúti Megállóhely;Soltszentimre Vasuti Megallohely;46.7667;19.2667
722600;Bánhidymajor;Bánhidymajor Vasúti Megállóhely;Banhidymajor Vasuti Megallohely;46.4667;21.2167
3042695;Vörs;Vörs Vasúti Megállóhely;Vors Vasuti Megallohely;46.6667;17.2667
718734;Kisvarsány;Kisvarsány Vasúti Megállóhely;Kisvarsany Vasuti Megallohely;48.15;22.3
722120;Boldogkőváralja;Boldogkőváralja Vasúti Megállóhely;Boldogkovaralja Vasuti Megallohely;48.35;21.2833
3055622;Bakonyszentlászló;Bakonyszentlászló Vasútállomás;Bakonyszentlaszlo Vasutallomas;47.4;17.8167
3042568;Zánka-Köveskál;Zánka-Köveskál Vasútállomás;Zanka-Koveskal Vasutallomas;46.8725;17.6874
722674;Balástya;Balástya Vasútállomás;Balastya Vasutallomas;46.4167;20.0
3046791;Pácsony;Pácsony Vasútállomás;Pacsony Vasutallomas;47.0167;16.8333
3045383;Seregélyes-Szőlőhegy;Seregélyes-Szőlőhegy Vasúti Megállóhely;Seregelyes-Szolohegy Vasuti Megallohely;47.1167;18.5833
3042510;Zrínyitelep;Zrínyitelep Vasúti Megállóhely;Zrinyitelep Vasuti Megallohely;46.2833;17.1333
721362;Dobaipuszta;Dobaipuszta Vasúti Megállóhely;Dobaipuszta Vasuti Megallohely;46.9667;21.3
3052803;Felsőmocsolád;Felsőmocsolád Vasútállomás;Felsomocsolad Vasutallomas;46.5596;17.8219
3042996;Velencefürdő;Velencefürdő Vasúti Megállóhely;Velencefurdo Vasuti Megallohely;47.2134;18.64
3055843;Árpádszállás;Árpádszállás Vasúti Megállóhely;Arpadszallas Vasuti Megallohely;46.8667;19.9833
3043099;Városlőd-Kislőd;Városlőd-Kislőd Vasútállomás;Varoslod-Kislod Vasutallomas;47.1333;17.6301
721623;Csobád;Csobád Vasúti Megállóhely;Csobad Vasuti Megallohely;48.2833;21.0333
716454;Perkupa;Perkupa Vasúti Megállóhely;Perkupa Vasuti Megallohely;48.4667;20.7
3044074;Tata;Tata Vasútállomás;Tata Vasutallomas;47.6667;18.3333
716201;Rákhát;Rákhát Vasúti Megállóhely;Rakhat Vasuti Megallohely;47.5167;20.45
3048248;Mecsekpölöske;Mecsekpölöske Vasúti Megállóhely;Mecsekpoloske Vasuti Megallohely;46.2167;18.2167
3046053;Rábapordány;Rábapordány Vasútállomás;Rabapordany Vasutallomas;47.5572;17.3152
718086;Ligettanya;Ligettanya Vasútállomás;Ligettanya Vasutallomas;47.95;22.0833
3055263;Becehegy;Becehegy Vasúti Megállóhely;Becehegy Vasuti Megallohely;46.7833;17.3833
3051179;Ikrény;Ikrény Vasútállomás;Ikreny Vasutallomas;47.6577;17.5231
715352;Szendrőlád;Szendrőlád Vasútállomás;Szendrolad Vasutallomas;48.3333;20.7333
3048606;Harka;Harka Vasútállomás;Harka Vasutallomas;47.6418;16.6189
3048325;Martonvásár;Martonvásár Vasútállomás;Martonvasar Vasutallomas;47.3167;18.7833
722850;Apagy;Apagy Vasútállomás;Apagy Vasutallomas;47.95;21.9333
718310;Kunszentmárton;Kunszentmárton Vasútállomás;Kunszentmarton Vasutallomas;46.85;20.3
714781;Tiszadada;Tiszadada Vasútállomás;Tiszadada Vasutallomas;48.0167;21.25
3043110;Városföld;Városföld Vasútállomás;Varosfold Vasutallomas;46.8167;19.7533
3049460;Kópháza;Kópháza Vasúti Megállóhely;Kophaza Vasuti Megallohely;47.6328;16.637
715312;Szepeshalom;Szepeshalom Vasúti Megállóhely;Szepeshalom Vasuti Megallohely;47.4781;21.599
722963;Algyő;Algyő Vasútállomás;Algyo Vasutallomas;46.35;20.2
720642;Gádoros;Gádoros Vasútállomás;Gadoros Vasutallomas;46.65;20.6167
3054704;Botykapeterd;Botykapeterd Vasúti Megállóhely;Botykapeterd Vasuti Megallohely;46.05;17.8667
3050926;Jánossomorja;Jánossomorja Vasútállomás;Janossomorja Vasutallomas;47.7891;17.1375
3050902;Jászfényszaru;Jászfényszaru Vasútállomás;Jaszfenyszaru Vasutallomas;47.5932;19.7532
3053854;Csurgó;Csurgó Vasútállomás;Csurgo Vasutallomas;46.2667;17.1
719684;Jánkmajtis;Jánkmajtis Vasútállomás;Jankmajtis Vasutallomas;47.8667;22.65
714713;Tiszaszentimre;Tiszaszentimre Vasútállomás;Tiszaszentimre Vasutallomas;47.5;20.7333
3045331;Siófok;Siófok Vasútállomás;Siofok Vasutallomas;46.9;18.05
3053834;Dabas;Dabas Vasútállomás;Dabas Vasutallomas;47.1924;19.3317
717852;Mándok;Mándok Vasútállomás;Mandok Vasutallomas;48.3167;22.2
3046246;Polgárdi-Ipartelepek;Polgárdi-Ipartelepek Vasútállomás;Polgardi-Ipartelepek Vasutallomas;47.0833;18.3167
3045214;Somogyudvarhely;Somogyudvarhely Vasútállomás;Somogyudvarhely Vasutallomas;46.1667;17.1833
3053622;Döbrököz;Döbrököz Vasútállomás;Dobrokoz Vasutallomas;46.4167;18.2667
715370;Szellőhát;Szellőhát Vasúti Megállóhely;Szellohat Vasuti Megallohely;47.4333;20.2
717581;Miskolc-Gömöri;Miskolc-Gömöri Pályaudvar;Miskolc-Gomori Palyaudvar;48.1126;20.7985
8410969;Hegykő;Hegykő Vasúti Megállóhely;Hegyko Vasuti Megallohely;47.6007;16.8167
3055678;Baja;Baja Vasútállomás;Baja Vasutallomas;46.1833;18.9667
719008;Kiscsákó;Kiscsákó Vasúti Megállóhely;Kiscsako Vasuti Megallohely;46.7167;20.7167
3054971;Bize;Bize Vasúti Megállóhely;Bize Vasuti Megallohely;46.5333;17.4333
3047280;Nyergesújfalu;Nyergesújfalu Vasútállomás;Nyergesujfalu Vasutallomas;47.7667;18.5667
8426437;Emmamajor;Emmamajor Vasúti Megállóhely;Emmamajor Vasuti Megallohely;47.5417;17.3166
3054843;Boldog;Boldog Vasúti Megállóhely;Boldog Vasuti Megallohely;47.6167;19.7167
722681;Baktalórántháza;Baktalórántháza Vasútállomás;Baktaloranthaza Vasutallomas;48.0;22.0833
714770;Tiszafüred;Tiszafüred Vasútállomás;Tiszafured Vasutallomas;47.6333;20.75
3047964;Mohács;Mohács Vasútállomás;Mohacs Vasutallomas;46.0;18.6833
716792;Ópályi;Ópályi Vasúti Megállóhely;Opalyi Vasuti Megallohely;48.0;22.3167
3045015;Szabadszállás;Szabadszállás Vasútállomás;Szabadszallas Vasutallomas;46.8833;19.2167
3048283;Mátraszőlős-Hasznos;Mátraszőlős-Hasznos Vasúti Megállóhely;Matraszolos-Hasznos Vasuti Megallohely;47.9393;19.7075
720686;Füzesabony;Füzesabony Vasútállomás;Fuzesabony Vasutallomas;47.75;20.4167
3053830;Dabronc;Dabronc Vasúti Megállóhely;Dabronc Vasuti Megallohely;47.0257;17.1672
719259;Kemecse;Kemecse Vasútállomás;Kemecse Vasutallomas;48.0667;21.15
3055591;Balatonaliga;Balatonaliga Vasútállomás;Balatonaliga Vasutallomas;46.9833;18.1667
3048175;Ménfőcsanak;Ménfőcsanak Vasútállomás;Menfocsanak Vasutallomas;47.6167;17.6167
3055727;Badacsonytördemic-Szigliget;Badacsonytördemic-Szigliget Vasútállomás;Badacsonytordemic-Szigliget Vasutallomas;46.8167;17.4833
3056206;Alsógyenes;Alsógyenes Vasúti Megállóhely;Alsogyenes Vasuti Megallohely;46.7667;17.2833
3054090;Csikóstőttős;Csikóstőttős Vasúti Megállóhely;Csikostottos Vasuti Megallohely;46.3333;18.15
722853;Apafa;Apafa Vasútállomás;Apafa Vasutallomas;47.5833;21.6667
719249;Kende;Kenderes Vasútállomás;Kenderes Vasutallomas;47.2667;20.6833
718468;Kótpuszta;Kótpuszta Vasútállomás;Kotpuszta Vasutallomas;46.9667;21.3667
3044797;Szedres;Szedres Vasútállomás;Szedres Vasutallomas;46.4787;18.717
717160;Nagyrét;Nagyrét Vasúti Megállóhely;Nagyret Vasuti Megallohely;46.7833;20.7
3042535;Zirc;Zirc Vasútállomás;Zirc Vasutallomas;47.2667;17.9
3046813;Ötvös;Ötvös Vasútállomás;Otvos Vasutallomas;47.0153;17.1359
11205690;Ferihegy;Ferihegy;Ferihegy;47.4378;19.224
720367;Gyökérkút;Gyökérkút Vasúti Megállóhely;Gyokerkut Vasuti Megallohely;47.6167;21.0167
717407;Nagycsere;Nagycsere Vasútállomás;Nagycsere Vasutallomas;47.5167;21.7667
3045329;Siójut;Siójut Vasútállomás;Siojut Vasutallomas;46.8833;18.1333
3051660;Hárshegy;Hárshegy Vasútállomás;Harshegy Vasutallomas;47.5356;18.9627
3047224;Nyúl;Nyúl Vasútállomás;Nyul Vasutallomas;47.5833;17.6833
3048827;Lesencetomaj;Lesencetomaj Vasútállomás;Lesencetomaj Vasutallomas;46.8755;17.3808
714597;Torna;Tornanádaska Vasútállomás;Tornanadaska Vasutallomas;48.5667;20.8
3055758;Bácsalmás;Bácsalmás Vasútállomás;Bacsalmas Vasutallomas;46.1167;19.35
716299;Püspökladány;Püspökladány Vasútállomás;Puspokladany Vasutallomas;47.3167;21.1167
720313;Gyüre;Gyüre Vasútállomás;Gyure Vasutallomas;48.1667;22.2833
715940;Sajószöged;Sajószöged Vasúti Megállóhely;Sajoszoged Vasuti Megallohely;47.95;20.9833
3043842;Tolnanémedi;Tolnanémedi Vasútállomás;Tolnanemedi Vasutallomas;46.7167;18.4667
3045491;Sárszentmiklós;Sárszentmiklós Vasútállomás;Sarszentmiklos Vasutallomas;46.85;18.6
721254;Ebes;Ebes Vasútállomás;Ebes Vasutallomas;47.4667;21.5
720271;Hajdúvid;Hajdúvid Vasúti Megállóhely;Hajduvid Vasuti Megallohely;47.75;21.5167
719998;Hevesvezekény;Hevesvezekény Vasúti Megállóhely;Hevesvezekeny Vasuti Megallohely;47.5667;20.3667
719094;Kétútköz;Kétútköz Vasúti Megállóhely;Ketutkoz Vasuti Megallohely;47.7;20.5667
715326;Szentkozma;Szentkozma Vasúti Megállóhely;Szentkozma Vasuti Megallohely;47.2333;21.4667
3055756;Bácsbokod-Bácsborsód;Bácsbokod-Bácsborsód Vasútállomás;Bacsbokod-Bacsborsod Vasutallomas;46.1167;19.2167
3055534;Balatonszárszó;Balatonszárszó Vasútállomás;Balatonszarszo Vasutallomas;46.8333;17.8333
3054661;Budafok;Budafok-Belváros Vasúti Megállóhely;Budafok-Belvaros Vasuti Megallohely;47.4262;19.0412
714819;Tiborszállás;Tiborszállás Vasútállomás;Tiborszallas Vasutallomas;47.8167;22.4167
3047605;Nagyoroszi;Nagyoroszi Vasútállomás;Nagyoroszi Vasutallomas;47.9921;19.1024
3056432;Acsa-Erdőkürt;Acsa-Erdőkürt Vasútállomás;Acsa-Erdokurt Vasutallomas;47.7983;19.3897
720356;Gyopárosfürdő;Gyopárosfürdő Vasúti Megállóhely;Gyoparosfurdo Vasuti Megallohely;46.5667;20.65
3046206;Porpác;Porpác Vasútállomás;Porpac Vasutallomas;47.2389;16.8328
3045043;Süttő;Süttő Vasútállomás;Sutto Vasutallomas;47.7611;18.4553
714361;Újvár;Újváros Vasúti Megállóhely;Ujvaros Vasuti Megallohely;46.65;20.5333
3052428;Galambos;Galambos Vasútállomás;Galambos Vasutallomas;46.6333;19.8
3051475;Hévízgyörk;Hévízgyörk Vasúti Megállóhely;Hevizgyork Vasuti Megallohely;47.6333;19.5167
3047668;Nagykáta;Nagykáta Vasútállomás;Nagykata Vasutallomas;47.4;19.75
714454;Újkenéz;Újkenéz Vasúti Megállóhely;Ujkenez Vasuti Megallohely;48.25;22.2167
3051185;Iklad-Domony;Iklad-Domony Vasútállomás;Iklad-Domony Vasutallomas;47.6667;19.45
719502;Kál-Kápolna;Kál-Kápolna Vasútállomás;Kal-Kapolna Vasutallomas;47.7333;20.2667
716203;Rakamaz;Rakamaz Vasútállomás;Rakamaz Vasutallomas;48.1167;21.4833
3046335;Pincehely;Pincehely Vasútállomás;Pincehely Vasutallomas;46.6833;18.45
720777;Földeák;Földeák Vasútállomás;Foldeak Vasutallomas;46.3167;20.4833
3045267;Somlóvásárhely;Somlóvásárhely Vasúti Megállóhely;Somlovasarhely Vasuti Megallohely;47.1244;17.3688
3046242;Polgárdi;Polgárdi Vasútállomás;Polgardi Vasutallomas;47.0667;18.2833
714418;Újszeged;Újszeged Vasútállomás;Ujszeged Vasutallomas;46.2423;20.1594
716338;Poroszló;Poroszló Vasútállomás;Poroszlo Vasutallomas;47.6667;20.65
3050403;Kelebia;Kelebia Vasútállomás;Kelebia Vasutallomas;46.2;19.6
3044099;Tárnok;Tárnok Vasútállomás;Tarnok Vasutallomas;47.3667;18.8833
3053981;Csomád;Csomád Vasútállomás;Csomad Vasutallomas;47.6356;19.2218
3052012;Gyón;Gyón Vasúti Megállóhely;Gyon Vasuti Megallohely;47.1803;19.3528
3043319;Úrihegy;Úrihegy Vasúti Megállóhely;Urihegy Vasuti Megallohely;46.9;19.6333
721998;Büdöskútpuszta;Büdöskútpuszta Vasúti Megállóhely;Budoskutpuszta Vasuti Megallohely;48.3833;20.7333
716246;Putnok;Putnok Vasútállomás;Putnok Vasutallomas;48.2833;20.45
716293;Pusztabánréve;Pusztabánréve Vasútállomás;Pusztabanreve Vasutallomas;46.9333;20.5667
3051720;Harkakötöny;Harkakötöny Vasútállomás;Harkakotony Vasutallomas;46.45;19.6
3055031;Bicsérd;Bicsérd Vasútállomás;Bicserd Vasutallomas;46.0333;18.0667
8410866;Ágfalva;Ágfalva Vasútállomás;Agfalva Vasutallomas;47.6906;16.5208
721644;Csincse;Csincse Vasúti Megállóhely;Csincse Vasuti Megallohely;47.9;20.7667
3053966;Csömör;Csömör Vasútállomás;Csomor Vasutallomas;47.55;19.2333
716801;Ondód;Ondód Vasúti Megállóhely;Ondod Vasuti Megallohely;47.4833;21.55
716950;Nyíradony;Nyíradony Vasútállomás;Nyiradony Vasutallomas;47.6982;21.8994
3042794;Vitnyéd-Csermajor;Vitnyéd-Csermajor Vasúti Megállóhely;Vitnyed-Csermajor Vasuti Megallohely;47.582;16.9872
3054286;Csengele;Csengele Vasútállomás;Csengele Vasutallomas;46.5333;19.9167
3051833;Halászaranyos;Halászaranyos Vasúti Megállóhely;Halaszaranyos Vasuti Megallohely;47.7167;19.95
720225;Halmaj;Halmaj Vasútállomás;Halmaj Vasutallomas;48.25;21.0
3050366;Kemenesmihályfa;Kemenesmihályfa Vasúti Megállóhely;Kemenesmihalyfa Vasuti Megallohely;47.279;17.1089
720289;Hajdúdorog;Hajdúdorog Vasútállomás;Hajdudorog Vasutallomas;47.8;21.5
717057;Nagyvisnyó-Dédes;Nagyvisnyó-Dédes Vasúti Megállóhely;Nagyvisnyo-Dedes Vasuti Megallohely;48.15;20.4333
3043029;Vaszar;Vaszar Vasútállomás;Vaszar Vasutallomas;47.4;17.5
720744;Forró-Encs;Forró-Encs Vasútállomás;Forro-Encs Vasutallomas;48.3333;21.1167
3056324;Albertirsa;Albertirsa Vasútállomás;Albertirsa Vasutallomas;47.2333;19.6167
3051034;Iváncsa;Iváncsa Vasútállomás;Ivancsa Vasutallomas;47.1811;18.816
722507;Barta;Barta Vasúti Megállóhely;Barta Vasuti Megallohely;47.1833;20.4833
3048760;Litke;Litke Vasútállomás;Litke Vasutallomas;48.2167;19.6
3056210;Alsógalla;Alsógalla Vasútállomás;Alsogalla Vasutallomas;47.5667;18.4167
3052036;Gyöngyösfalu;Gyöngyösfalu Vasúti Megállóhely;Gyongyosfalu Vasuti Megallohely;47.3164;16.5886
3047220;Óalmás;Óalmás Vasútállomás;Oalmas Vasutallomas;46.1167;19.3
3044111;Tárkány-Csép;Tárkány-Csép Vasúti Megállóhely;Tarkany-Csep Vasuti Megallohely;47.5952;18.0414
3053344;Egyházasrádóc;Egyházasrádóc Vasútállomás;Egyhazasradoc Vasutallomas;47.0833;16.6167
716851;Okány;Okány Vasútállomás;Okany Vasutallomas;46.9;21.3333
715953;Sajónémeti;Sajónémeti Vasúti Megállóhely;Sajonemeti Vasuti Megallohely;48.2667;20.3667
722394;Belsőkamaráspuszta;Belsőkamaráspuszta Vasúti Megállóhely;Belsokamaraspuszta Vasuti Megallohely;46.3167;20.9167
713840;Zsujta;Zsujta Vasúti Megállóhely;Zsujta Vasuti Megallohely;48.5;21.2667
3054852;Bölcske;Bölcske Vasútállomás;Bolcske Vasutallomas;46.7267;18.93
715461;Szarvaskő;Szarvaskő Vasútállomás;Szarvasko Vasutallomas;48.0167;20.3333
718596;Kónyaszék;Kónyaszék Vasúti Megállóhely;Konyaszek Vasuti Megallohely;46.6833;20.05
3045958;Rákos;Rákos Vasútállomás;Rakos Vasutallomas;47.4888;19.1751
3048833;Lepsény;Lepsény Vasútállomás;Lepseny Vasutallomas;46.9833;18.25
3044180;Taksony;Taksony Vasútállomás;Taksony Vasutallomas;47.3167;19.0833
3047629;Nagylók;Nagylók Vasútállomás;Nagylok Vasutallomas;46.9833;18.65
715215;Szilvásvárad;Szilvásvárad Vasútállomás;Szilvasvarad Vasutallomas;48.1167;20.3833
713922;Zajta;Zajta Vasútállomás;Zajta Vasutallomas;47.9;22.8
720456;Görögszállás;Görögszállás Vasútállomás;Gorogszallas Vasutallomas;48.05;21.5667
3050621;Kaposszekcső;Kaposszekcső Vasúti Megállóhely;Kaposszekcso Vasuti Megallohely;46.3333;18.15
3047793;Nagyberki;Nagyberki Vasúti Megállóhely;Nagyberki Vasuti Megallohely;46.3667;18.0167
3045961;Rákosrendező;Rákosrendező Pályaudvar;Rakosrendezo Palyaudvar;47.5259;19.0902
3048610;Magyarbóly;Magyarbóly Vasútállomás;Magyarboly Vasutallomas;45.8336;18.4925
3051106;Ipolytarnóc;Ipolytarnóc Vasútállomás;Ipolytarnoc Vasutallomas;48.2333;19.6333
3050900;Jászszentlászló;Jászszentlászló Vasútállomás;Jaszszentlaszlo Vasutallomas;46.5667;19.7667
719309;Kazincbarcika;Kazincbarcika Vasútállomás;Kazincbarcika Vasutallomas;48.2667;20.6333
3046081;Pusztaszentistván;Pusztaszentistván Vasúti Megállóhely;Pusztaszentistvan Vasuti Megallohely;47.45;19.4667
715967;Sajóecseg;Sajóecseg Vasútállomás;Sajoecseg Vasutallomas;48.1833;20.7667
3046298;Pirtó;Pirtó Vasútállomás;Pirto Vasutallomas;46.5004;19.4486
3053320;Előszállás;Előszállás Vasútállomás;Eloszallas Vasutallomas;46.8309;18.8424
3044361;Szőkéd;Szőkéd Vasúti Megállóhely;Szoked Vasuti Megallohely;45.9672;18.2906
3047416;Nemesgulács-Kisapáti;Nemesgulács-Kisapáti Vasúti Megállóhely;Nemesgulacs-Kisapati Vasuti Megallohely;46.8333;17.4833
722423;Bélapátfalva;Bélapátfalva Vasútállomás;Belapatfalva Vasutallomas;48.0667;20.3667
723038;Abaújkér;Abaújkér Vasúti Megállóhely;Abaujker Vasuti Megallohely;48.3;21.2
715902;Sáránd;Sáránd Vasútállomás;Sarand Vasutallomas;47.4;21.6167
3045658;Szépjuhászné;Szépjuhászné Vasútállomás;Szepjuhaszne Vasutallomas;47.529;18.9549
718227;Lakitelek;Lakitelek Vasútállomás;Lakitelek Vasutallomas;46.8667;20.0
721403;Déva;Dévaványa Vasútállomás;Devavanya Vasutallomas;47.0333;20.95
3051479;Hetvehely;Hetvehely Vasúti Megállóhely;Hetvehely Vasuti Megallohely;46.1333;18.05
3048046;Miklóstelep;Miklóstelep Vasúti Megállóhely;Miklostelep Vasuti Megallohely;46.9;19.65
717895;Makó;Makó Vasútállomás;Mako Vasutallomas;46.2;20.4667
3047963;Moha-Rakodó;Moha-Rakodó Vasútállomás;Moha-Rakodo Vasutallomas;47.2667;18.3
3044756;Szekszárd-Palánk;Szekszárd-Palánk Vasúti Megállóhely;Szekszard-Palank Vasuti Megallohely;46.3833;18.7333
715680;Sóstóhegy;Sóstóhegy Vasútállomás;Sostohegy Vasutallomas;48.0167;21.75
3044377;Szob;Szob Vasútállomás;Szob Vasutallomas;47.8167;18.8667
718905;Kiskundorozsma;Kiskundorozsma Vasútállomás;Kiskundorozsma Vasutallomas;46.2718;20.0911
3053474;Dunakeszi-Gyártelep;Dunakeszi-Gyártelep Vasúti Megállóhely;Dunakeszi-Gyartelep Vasuti Megallohely;47.65;19.1333
3053977;Csoma-Szabadi;Csoma-Szabadi Vasútállomás;Csoma-Szabadi Vasutallomas;46.3667;18.0333
718805;Kisszénás;Kisszénás Vasútállomás;Kisszenas Vasutallomas;46.75;20.7333
3054447;Csajág;Csajág Vasútállomás;Csajag Vasutallomas;47.0352;18.1855
3043283;Váckisújfalu;Váckisújfalu Vasúti Megállóhely;Vackisujfalu Vasuti Megallohely;47.7;19.35
714972;Tarcal;Tarcal Vasútállomás;Tarcal Vasutallomas;48.1333;21.3333
3046258;Pókaszepetk;Pókaszepetk Vasútállomás;Pokaszepetk Vasutallomas;46.9167;16.9667
3055409;Baracska;Baracska Vasúti Megállóhely;Baracska Vasuti Megallohely;47.3;18.7667
3053419;Dúzs;Dúzs Vasúti Megállóhely;Duzs Vasuti Megallohely;46.5;18.3833
3055731;Badacsonyörs;Badacsonyörs Vasúti Megállóhely;Badacsonyors Vasuti Megallohely;46.8;17.5333
716258;Pusztaszenttornya;Pusztaszenttornya Vasúti Megállóhely;Pusztaszenttornya Vasuti Megallohely;46.6167;20.6833
3043032;Vasvár;Vasvár Vasútállomás;Vasvar Vasutallomas;47.057;16.8004
722606;Bánhalma-Halastó;Bánhalma-Halastó Vasúti Megállóhely;Banhalma-Halasto Vasuti Megallohely;47.3333;20.6667
714291;Vaja-Rohod;Vaja-Rohod Vasútállomás;Vaja-Rohod Vasutallomas;48.0;22.15
3042745;Vonyarcvashegy;Vonyarcvashegy Vasútállomás;Vonyarcvashegy Vasutallomas;46.75;17.3167
717332;Nagyhalom;Nagyhalom Vasúti Megállóhely;Nagyhalom Vasuti Megallohely;47.5333;20.0667
717897;Makó-Újváros;Makó-Újváros Vasútállomás;Mako-Ujvaros Vasutallomas;46.2333;20.5
720283;Hajdúnánás-Vásártér;Hajdúnánás-Vásártér Vasúti Megállóhely;Hajdunanas-Vasarter Vasuti Megallohely;47.8333;21.4
3055508;Balffürdő;Balffürdő Vasúti Megállóhely;Balffuerdo Vasuti Megallohely;47.6442;16.6544
3047817;Nagyatád;Nagyatád Vasútállomás;Nagyatad Vasutallomas;46.2167;17.3667
720294;Hajdúbagos;Hajdúbagos Vasútállomás;Hajdubagos Vasutallomas;47.403;21.6621
3055813;Áta;Áta Vasútállomás;Ata Vasutallomas;45.935;18.3067
3046003;Rádiháza;Rádiháza Vasúti Megállóhely;Radihaza Vasuti Megallohely;46.65;16.7833
3052418;Galgahévíz;Galgahévíz Vasúti Megállóhely;Galgaheviz Vasuti Megallohely;47.6313;19.5623
3046443;Pesterzsébet;Pesterzsébet Vasúti Megállóhely;Pesterzsebet Vasuti Megallohely;47.4338;19.0972
3053360;Egyed-Rábacsanak;Egyed-Rábacsanak Vasútállomás;Egyed-Rabacsanak Vasutallomas;47.5221;17.3165
3055250;Becske;Becske Vasúti Megállóhely;Becske Vasuti Megallohely;47.9233;19.35
719842;Hosszúpályi;Hosszúpályi Vasútállomás;Hosszupalyi Vasutallomas;47.3993;21.7289
3053356;Egyetemi Tangazdaság;Egyetemi Tangazdaság Vasúti Megállóhely;Egyetemi Tangazdasag Vasuti Megallohely;47.25;18.95
722821;Aranyosapáti;Aranyosapáti Vasútállomás;Aranyosapati Vasutallomas;48.2167;22.25
716730;Orosháza;Orosháza Vasútállomás;Oroshaza Vasutallomas;46.5667;20.6833
3050243;Kerta;Kerta Vasútállomás;Kerta Vasutallomas;47.1514;17.2385
3054836;Bolhás;Bolhás Vasúti Megállóhely;Bolhas Vasuti Megallohely;46.2833;17.2667
715000;Tállya;Tállya Vasútállomás;Tallya Vasutallomas;48.2167;21.2167
3050042;Kisdobsza;Kisdobsza Vasúti Megállóhely;Kisdobsza Vasuti Megallohely;46.0167;17.6667
3045151;Soroksár;Soroksár Vasútállomás;Soroksar Vasutallomas;47.402;19.1231
3042595;Zalaszentjakab;Zalaszentjakab Vasútállomás;Zalaszentjakab Vasutallomas;46.4833;17.1333
721230;Egerfarmos;Egerfarmos Vasútállomás;Egerfarmos Vasutallomas;47.7167;20.5333
716726;Oros;Oros Vasútállomás;Oros Vasutallomas;47.95;21.8
3049893;Kiskorpád;Kiskorpád Vasútállomás;Kiskorpad Vasutallomas;46.36;17.6007
3052636;Fertőszéplak-Fertőd;Fertőszéplak-Fertőd Vasúti Megállóhely;Fertoszeplak-Fertod Vasuti Megallohely;47.618;16.8507
3054541;Ceglédbercel-Cserő;Ceglédbercel-Cserő Vasútállomás;Cegledbercel-Csero Vasutallomas;47.2101;19.6875
8425801;Csánig;Csánig Vasúti Megállóhely;Csanig Vasuti Megallohely;47.4302;17.026
3053916;Csór-Nádasdladány;Csór-Nádasdladány Vasútállomás;Csor-Nadasdladany Vasutallomas;47.1739;18.2206
714709;Tiszaszőlős;Tiszaszőlős Vasútállomás;Tiszaszolos Vasutallomas;47.5667;20.7333
721310;Dombostanya;Dombostanya Vasúti Megállóhely;Dombostanya Vasuti Megallohely;47.6028;21.7065
714186;Vásárosnamény;Vásárosnamény Vasútállomás;Vasarosnameny Vasutallomas;48.1254;22.3133
714414;Újszentmargita;Újszentmargita Vasútállomás;Ujszentmargita Vasutallomas;47.75;21.1167
722947;Almáskert;Almáskert Vasúti Megállóhely;Almaskert Vasuti Megallohely;46.6667;20.5
716967;Nyékládháza;Nyékládháza Vasútállomás;Nyekladhaza Vasutallomas;47.9833;20.8333
3044820;Százhalombatta;Százhalombatta Vasútállomás;Szazhalombatta Vasutallomas;47.3167;18.9
3043844;Tolna-Mözs;Tolna-Mözs Vasútállomás;Tolna-Mozs Vasutallomas;46.4132;18.7487
3048280;Mátraverebély;Mátraverebély Vasúti Megállóhely;Matraverebely Vasuti Megallohely;47.9685;19.7791
719589;Jósvafő-Aggtelek;Jósvafő-Aggtelek Vasútállomás;Josvafo-Aggtelek Vasutallomas;48.4833;20.7
716944;Nyírbogát;Nyírbogát Vasútállomás;Nyirbogat Vasutallomas;47.7833;22.05
3043067;Vasegerszeg;Vasegerszeg Vasúti Megállóhely;Vasegerszeg Vasuti Megallohely;47.3745;16.9283
3052851;Felsőkörtvélyes;Felsőkörtvélyes Vasúti Megállóhely;Felsokortvelyes Vasuti Megallohely;46.9333;18.6
718909;Kisköre-Tiszahíd;Kisköre-Tiszahíd Vasúti Megállóhely;Kiskore-Tiszahid Vasuti Megallohely;47.4667;20.5333
717134;Nagyszekeres;Nagyszekeres Vasútállomás;Nagyszekeres Vasutallomas;47.9833;22.6167
722475;Battonya;Battonya Vasútállomás;Battonya Vasutallomas;46.2833;21.0167
717633;Mezőtúr;Mezőtúr Vasútállomás;Mezotur Vasutallomas;47.0167;20.6167
3047342;Nógrád;Nógrád Vasútállomás;Nograd Vasutallomas;47.9;19.05
715257;Szikszó-Vásártér;Szikszó-Vásártér Vasúti Megállóhely;Szikszo-Vasarter Vasuti Megallohely;48.1833;20.9333
3055564;Balatonfüred;Balatonfüred Vasútállomás;Balatonfured Vasutallomas;46.95;17.8833
719065;Királd;Királd Vasútállomás;Kirald Vasutallomas;48.25;20.3833
3052847;Felsőlajos;Felsőlajos Vasúti Megállóhely;Felsolajos Vasuti Megallohely;47.0675;19.4993
714693;Tiszavárkony;Tiszavárkony Vasútállomás;Tiszavarkony Vasutallomas;47.0667;20.15
3046910;Örkény;Örkény Vasútállomás;Orkeny Vasutallomas;47.1338;19.446
3042773;Vizslás;Vizslás Vasúti Megállóhely;Vizslas Vasuti Megallohely;48.0399;19.8072
3051471;Hidas-Bonyhád;Hidas-Bonyhád Vasútállomás;Hidas-Bonyhad Vasutallomas;46.2721;18.5209
3051323;Hort-Csány;Hort-Csány Vasútállomás;Hort-Csany Vasutallomas;47.6667;19.8
716940;Nyírcsaholy;Nyírcsaholy Vasúti Megállóhely;Nyircsaholy Vasuti Megallohely;47.9;22.35
3054128;Csibrák;Csibrák Vasúti Megállóhely;Csibrak Vasuti Megallohely;46.4667;18.35
722732;Bagimajor;Bagimajor Vasúti Megállóhely;Bagimajor Vasuti Megallohely;47.0667;20.3167
714775;Tiszaeszlár;Tiszaeszlár Vasútállomás;Tiszaeszlar Vasutallomas;48.0167;21.5
3053588;Dombóvár;Dombóvár Vasútállomás;Dombovar Vasutallomas;46.3667;18.15
3055297;Bátaszék;Bátaszék Vasútállomás;Bataszek Vasutallomas;46.2;18.7167
716892;Nyírtelek;Nyírtelek Vasútállomás;Nyirtelek Vasutallomas;48.0;21.6167
721860;Csanádpalota;Csanádpalota Vasútállomás;Csanadpalota Vasutallomas;46.25;20.7333
3053160;Esztergom;Esztergom Vasútállomás;Esztergom Vasutallomas;47.7833;18.75
716797;Onga;Onga Vasútállomás;Onga Vasutallomas;48.1167;20.9
722553;Báránd;Báránd Vasútállomás;Barand Vasutallomas;47.3;21.25
715425;Szeged;Szeged Vasútállomás;Szeged Vasutallomas;46.2405;20.1436
715343;Szentannapuszta;Szentannapuszta Vasúti Megállóhely;Szentannapuszta Vasuti Megallohely;47.5206;21.9657
3053574;Dömsöd;Dömsöd Vasútállomás;Domsod Vasutallomas;47.1101;19.0795
720990;Fegyvernek-Örményes;Fegyvernek-Örményes Vasútállomás;Fegyvernek-Ormenyes Vasutallomas;47.1833;20.5667
715905;Sáp;Sáp Vasútállomás;Sap Vasutallomas;47.2667;21.3667
3049119;Külsővat;Külsővat Vasútállomás;Kulsovat Vasutallomas;47.2802;17.2217
3045200;Somoskőújfalu;Somoskőújfalu Vasútállomás;Somoskoujfalu Vasutallomas;48.167;19.821
718737;Kisvárda;Kisvárda Vasútállomás;Kisvarda Vasutallomas;48.2167;22.1
721191;Elágazás;Elágazás Vasútállomás;Elagazas Vasutallomas;48.2667;21.55
719226;Kengyel;Kengyel Vasútállomás;Kengyel Vasutallomas;47.0833;20.3333
719125;Kétegyháza;Kétegyháza Vasútállomás;Ketegyhaza Vasutallomas;46.5333;21.1667
3049695;Kistótfalu;Kistótfalu Vasúti Megállóhely;Kistotfalu Vasuti Megallohely;45.9096;18.3155
716275;Pusztakettős;Pusztakettős Vasúti Megállóhely;Pusztakettos Vasuti Megallohely;47.4667;20.75
718636;Komádi;Komádi Vasútállomás;Komadi Vasutallomas;46.9667;21.5
3042864;Villány;Villány Vasútállomás;Villany Vasutallomas;45.8769;18.4506
721272;Dubicsány;Dubicsány Vasúti Megállóhely;Dubicsany Vasuti Megallohely;48.2833;20.5
716731;Orosháza-Üveggyár;Orosháza-Üveggyár Vasúti Megállóhely;Oroshaza-Uveggyar Vasuti Megallohely;46.55;20.6833
3046770;Pakod;Pakod Vasúti Megállóhely;Pakod Vasuti Megallohely;46.9667;17.0
716904;Nyírmeggyes;Nyírmeggyes Vasúti Megállóhely;Nyirmeggyes Vasuti Megallohely;47.9333;22.2667
721883;Csabacsűd;Csabacsűd Vasútállomás;Csabacsud Vasutallomas;46.8167;20.65
719805;Ibrány;Ibrány Vasútállomás;Ibrany Vasutallomas;48.1167;21.7
3044476;Szigetszentmárton-Szigetújfalu;Szigetszentmárton-Szigetújfalu Vasútállomás;Szigetszentmarton-Szigetujfalu Vasutallomas;47.2276;18.9462
3042636;Zalaegerszeg-Ola;Zalaegerszeg-Ola Vasúti Megállóhely;Zalaegerszeg-Ola Vasuti Megallohely;46.8333;17.8167
3055520;Balatonújlak;Balatonújlak Vasúti Megállóhely;Balatonujlak Vasuti Megallohely;46.6667;17.4
3049507;Komló;Komló Vasútállomás;Komlo Vasutallomas;46.2;18.2667
719116;Kéthalom;Kéthalom Vasúti Megállóhely;Kethalom Vasuti Megallohely;47.0;21.0
3050612;Kaposvár;Kaposvár Vasútállomás;Kaposvar Vasutallomas;46.3667;17.8
3044150;Tápiószele;Tápiószele Vasútállomás;Tapioszele Vasutallomas;47.3333;19.8833
3055483;Balotaszállás;Balotaszállás Vasútállomás;Balotaszallas Vasutallomas;46.35;19.5333
3052033;Gyöngyöshalász;Gyöngyöshalász Vasúti Megállóhely;Gyongyoshalasz Vasuti Megallohely;47.7442;19.9322
3045841;Rétszilas;Rétszilas Vasútállomás;Retszilas Vasutallomas;46.8105;18.6011
716159;Rátka;Rátka Vasúti Megállóhely;Ratka Vasuti Megallohely;48.2;21.2333
3048629;Maglódi Nyaraló;Maglódi Nyaraló Vasúti Megállóhely;Maglodi Nyaralo Vasuti Megallohely;47.4348;19.3648
3044307;Szombathely;Szombathely Vasútállomás;Szombathely Vasutallomas;47.2376;16.6321
3048842;Lenti;Lenti Vasútállomás;Lenti Vasutallomas;46.6167;16.5333
715268;Szikáncs;Szikáncs Vasútállomás;Szikancs Vasutallomas;46.3667;20.45
3045382;Seregélyes;Seregélyes Vasútállomás;Seregelyes Vasutallomas;47.1167;18.5833
720479;Görbeháza;Görbeháza Vasúti Megállóhely;Gorbehaza Vasuti Megallohely;47.85;21.15
721744;Cserepes;Cserepes Vasúti Megállóhely;Cserepes Vasuti Megallohely;47.7;21.0833
717657;Mezőkeresztes-Mezőnyárád;Mezőkeresztes-Mezőnyárád Vasútállomás;Mezokeresztes-Mezonyarad Vasutallomas;47.85;20.6833
713928;Záhony;Záhony Vasútállomás;Zahony Vasutallomas;48.4;22.1833
3043967;Terézhalom;Terézhalom Vasúti Megállóhely;Terezhalom Vasuti Megallohely;46.3167;19.3667
3047584;Nagypeterd;Nagypeterd Vasúti Megállóhely;Nagypeterd Vasuti Megallohely;46.05;17.9
3053480;Dunai Finomító;Dunai Finomító Vasútállomás;Dunai Finomito Vasutallomas;47.3;18.8833
714035;Vilmaszállás;Vilmaszállás Vasúti Megállóhely;Vilmaszallas Vasuti Megallohely;46.3667;20.0333
714011;Virányos;Virányos Vasúti Megállóhely;Viranyos Vasuti Megallohely;48.0667;21.5167
715351;Szendrő;Szendrő Vasútállomás;Szendro Vasutallomas;48.4;20.7167
715961;Sajókaza;Sajókaza Vasútállomás;Sajokaza Vasutallomas;48.2833;20.5833
720019;Hernádvécse;Hernádvécse Vasúti Megállóhely;Hernadvecse Vasuti Megallohely;48.5333;21.2
722338;Berekhát;Berekhát Vasúti Megállóhely;Berekhat Vasuti Megallohely;46.6167;20.2667
3055291;Baté;Baté Vasútállomás;Bate Vasutallomas;46.35;17.95
717398;Nagydobos;Nagydobos Vasútállomás;Nagydobos Vasutallomas;48.05;22.3167
3051149;Ilonaszállás;Ilonaszállás Vasúti Megállóhely;Ilonaszallas Vasuti Megallohely;46.5833;19.8
3048099;Mezőlak;Mezőlak Vasútállomás;Mezolak Vasutallomas;47.3232;17.3665
3045549;Sárhida;Sárhida Vasúti Megállóhely;Sarhida Vasuti Megallohely;46.75;16.85
3042868;Villánykövesd;Villánykövesd Vasúti Megállóhely;Villanykovesd Vasuti Megallohely;45.8833;18.4333
714511;Turgony;Turgony Vasúti Megállóhely;Turgony Vasuti Megallohely;47.2167;20.65
3055163;Belsőnyír;Belsőnyír Vasúti Megállóhely;Belsonyir Vasuti Megallohely;46.9167;19.6167
3044137;Tapolca;Tapolca Vasútállomás;Tapolca Vasutallomas;46.8833;17.4333
3048626;Mágocs-Alsómocsolád;Mágocs-Alsómocsolád Vasútállomás;Magocs-Alsomocsolad Vasutallomas;46.3066;18.224
3050646;Kápolnásnyék;Kápolnásnyék Vasútállomás;Kapolnasnyek Vasutallomas;47.25;18.7
3042954;Verőce;Verőcemaros Vasútállomás;Verocemaros Vasutallomas;47.8235;19.0379
3045073;Sülysáp;Sülysáp Vasútállomás;Sulysap Vasutallomas;47.45;19.5333
3052982;Fekete;Fekete Vasúti Megállóhely;Fekete Vasuti Megallohely;46.9833;19.7333
3055527;Balatonszepezd;Balatonszepezd Vasúti Megállóhely;Balatonszepezd Vasuti Megallohely;46.85;17.6667
3050777;Kajdacs;Kajdacs Vasúti Megállóhely;Kajdacs Vasuti Megallohely;46.5881;18.6499
719492;Kállósemjén;Kállósemjén Vasútállomás;Kallosemjen Vasutallomas;47.8667;21.9333
3055667;Bajti-elágazás;Bajti-elágazás Vasúti Megállóhely;Bajti-elagazas Vasuti Megallohely;47.2579;16.977
3050987;Jákó-Nagybajom;Jákó-Nagybajom Vasútállomás;Jako-Nagybajom Vasutallomas;46.3442;17.5554
720764;Folyás;Folyás Vasútállomás;Folyas Vasutallomas;47.8;21.1333
3047407;Nemeskeresztúr;Nemeskeresztúr Vasúti Megállóhely;Nemeskeresztur Vasuti Megallohely;47.0928;17.1833
3055295;Báta;Báta Vasútállomás;Bata Vasutallomas;46.141;18.7179
717789;Martfű;Martfű Vasútállomás;Martfu Vasutallomas;47.0167;20.3
719109;Kétpó;Kétpó Vasútállomás;Ketpo Vasutallomas;47.0833;20.4833
3047675;Nagykapornak;Nagykapornak Vasútállomás;Nagykapornak Vasutallomas;46.8167;16.9333
3048179;Ménesmajor;Ménesmajor Vasúti Megállóhely;Menesmajor Vasuti Megallohely;46.8833;18.8
722772;Aszaló;Aszaló Vasúti Megállóhely;Aszalo Vasuti Megallohely;48.2167;20.9667
6690559;Rákosfalva;Rákosfalva Vasútállomás;Rakosfalva Vasutallomas;47.5052;19.1514
716269;Pusztakürt;Pusztakürt Vasúti Megállóhely;Pusztakurt Vasuti Megallohely;47.4167;20.1833
721587;Csongrád;Csongrád Vasútállomás;Csongrad Vasutallomas;46.7167;20.1333
3042768;Vízvár;Vízvár Vasútállomás;Vizvar Vasutallomas;46.1024;17.2376
3050640;Kapoly;Kapoly Vasútállomás;Kapoly Vasutallomas;46.7167;17.9833
3043777;Törökbálint;Törökbálint Vasúti Megállóhely;Torokbalint Vasuti Megallohely;47.4495;18.9109
3045821;Rigács;Rigács-Megyer Vasúti Megállóhely;Rigacs-Megyer Vasuti Megallohely;47.0604;17.1988
3042664;Zagyvapálfalva;Zagyvapálfalva Vasútállomás;Zagyvapalfalva Vasutallomas;48.0667;19.7833
3046090;Pusztamonostor;Pusztamonostor Vasútállomás;Pusztamonostor Vasutallomas;47.5667;19.8
3046843;Oszkó;Oszkó Vasútállomás;Oszko Vasutallomas;47.0568;16.8523
3055595;Balatonakali-Dörgicse;Balatonakali-Dörgicse Vasútállomás;Balatonakali-Dorgicse Vasutallomas;46.8833;17.75
720063;Hejce-Vilmány;Hejce-Vilmány Vasútállomás;Hejce-Vilmany Vasutallomas;48.4333;21.25
3054664;Budafa;Budafa Vasúti Megállóhely;Budafa Vasuti Megallohely;46.85;16.6333
717041;Napkor;Napkor Vasúti Megállóhely;Napkor Vasuti Megallohely;47.95;21.8667
3043805;Toponár;Toponár Vasútállomás;Toponar Vasutallomas;46.4;17.8333
3054535;Cegléd;Cegléd Vasútállomás;Cegled Vasutallomas;47.1828;19.806
716190;Rákóczitanya;Rákóczitanya Vasúti Megállóhely;Rakoczitanya Vasuti Megallohely;48.0167;22.1833
3045218;Somogyszob;Somogyszob Vasútállomás;Somogyszob Vasutallomas;46.3;17.3
3047923;Mórágy;Mórágy Vasútállomás;Moragy Vasutallomas;46.2382;18.6268
3046224;Pörböly;Pörböly Vasútállomás;Porboly Vasutallomas;46.1991;18.8255
3053513;Drégelypalánk;Drégelypalánk Vasútállomás;Dregelypalank Vasutallomas;48.0545;19.0462
716931;Nyíregyháza;Nyíregyháza Vasútállomás;Nyiregyhaza Vasutallomas;47.9467;21.7061
718631;Komját;Komjáti Vasúti Megállóhely;Komjati Vasuti Megallohely;48.55;20.7667
718923;Kiskapud;Kiskapud Vasútállomás;Kiskapud Vasutallomas;48.2167;20.35
3044152;Tápiószecső;Tápiószecső Vasútállomás;Tapioszecso Vasutallomas;47.4333;19.6167
3043287;Váchartyán;Váchartyán Vasúti Megállóhely;Vachartyan Vasuti Megallohely;47.7333;19.25
717770;Mátészalka;Mátészalka Vasútállomás;Mateszalka Vasutallomas;47.95;20.4
717590;Mindszent;Mindszent Vasútállomás;Mindszent Vasutallomas;46.5167;20.2
3045924;Rédics;Rédics Vasútállomás;Redics Vasutallomas;46.6183;16.4717
717650;Mezőkövesd;Mezőkövesd Vasútállomás;Mezokovesd Vasutallomas;47.8;20.5667
3055691;Bag;Bag Vasúti Megállóhely;Bag Vasuti Megallohely;47.6413;19.4719
719398;Karcag-Vásártér;Karcag-Vásártér Vasútállomás;Karcag-Vasarter Vasutallomas;47.3167;20.9
717614;Mikepércs;Mikepércs Vasúti Megállóhely;Mikepercs Vasuti Megallohely;47.4333;21.6167
3047126;Őrbottyán;Őrbottyán Vasútállomás;Orbottyan Vasutallomas;47.7;19.2833
3052044;Gyömrő;Gyömrő Vasútállomás;Gyomro Vasutallomas;47.4333;19.3833
714978;Tápiómajor;Tápiómajor Vasúti Megállóhely;Tapiomajor Vasuti Megallohely;47.3306;20.0318
3055605;Bak;Bak Vasútállomás;Bak Vasutallomas;46.7167;16.85
722180;Bódvaszilas;Bódvaszilas Vasútállomás;Bodvaszilas Vasutallomas;48.5333;20.75
3053298;Enese;Enese Vasútállomás;Enese Vasutallomas;47.6442;17.4249
3043294;Uzsa;Uzsa Vasútállomás;Uzsa Vasutallomas;46.9167;17.3333
8426433;Tócóvölgy;Tócóvölgy;Tocovoelgy;47.5294;21.5888
3048190;Mélykút;Mélykút Vasútállomás;Melykut Vasutallomas;46.25;19.35
716925;Nyírgelse;Nyírgelse Vasútállomás;Nyirgelse Vasutallomas;47.75;22.0
3042855;Vinár;Vinár Vasútállomás;Vinar Vasutallomas;47.306;17.2847
718478;Kótaj;Kótaj Vasútállomás;Kotaj Vasutallomas;48.05;21.7167
3055593;Balatonakarattya;Balatonakarattya Vasúti Megállóhely;Balatonakarattya Vasuti Megallohely;47.0167;18.1667
3049668;Kitérőgyár;Kitérőgyár Vasúti Megállóhely;Kiterogyar Vasuti Megallohely;47.7667;19.95
717520;Monostorpályi;Monostorpályi Vasútállomás;Monostorpalyi Vasutallomas;47.3833;21.7667
714569;Tószeg;Tószeg Vasútállomás;Toszeg Vasutallomas;47.1;20.15
718314;Kunmadaras;Kunmadaras Vasútállomás;Kunmadaras Vasutallomas;47.4167;20.8
3043079;Vásárosdombó;Vásárosdombó Vasútállomás;Vasarosdombo Vasutallomas;46.3;18.15
3043901;Tiszaalpár;Tiszaalpár Vasútállomás;Tiszaalpar Vasutallomas;46.8167;19.9833
715414;Szegvár;Szegvár Vasútállomás;Szegvar Vasutallomas;46.5833;20.25
719963;Hódmezővásárhely-Ipartelepek;Hódmezővásárhely-Ipartelepek Vasúti Megállóhely;Hodmezovasarhely-Ipartelepek Vasuti Megallohely;46.4;20.3833
6691850;Istvántelek;Istvántelek Vasúti Megállóhely;Istvantelek Vasuti Megallohely;47.5504;19.1067
718598;Konyár;Konyár Vasútállomás;Konyar Vasutallomas;47.3167;21.6833
720678;Füzesgyarmatfürdő;Füzesgyarmatfürdő Vasúti Megállóhely;Fuzesgyarmatfurdo Vasuti Megallohely;47.0833;21.2167
3045297;Soltvadkert;Soltvadkert Vasútállomás;Soltvadkert Vasutallomas;46.5833;19.3833
3055197;Belecska;Belecska Vasúti Megállóhely;Belecska Vasuti Megallohely;46.65;18.4167
722468;Bazsómajor;Bazsómajor Vasúti Megállóhely;Bazsomajor Vasuti Megallohely;47.6667;20.3167
720647;Gacsály;Gacsály Vasútállomás;Gacsaly Vasutallomas;47.9333;22.7667
718717;Klárafalva;Klárafalva Vasútállomás;Klarafalva Vasutallomas;46.204;20.318
3054642;Angyalföld;Angyalföld Vasútállomás;Angyalfoeld Vasutallomas;47.5496;19.0899
3049665;Klábertelep;Klábertelep Vasútállomás;Klabertelep Vasutallomas;47.0;19.55
3047300;Nyársapát;Nyársapát Vasútállomás;Nyarsapat Vasutallomas;47.101;19.7919
3054959;Bocfölde;Bocfölde Vasúti Megállóhely;Bocfolde Vasuti Megallohely;46.7833;16.8333
3045947;Raposka;Raposka Vasúti Megállóhely;Raposka Vasuti Megallohely;46.8333;17.4167
3046322;Pinnye;Pinnye Vasútállomás;Pinnye Vasutallomas;47.6002;16.7694
3042991;Velence;Velence Vasúti Megállóhely;Velence Vasuti Megallohely;47.2333;18.6667
714462;Újfehértó;Újfehértó Vasútállomás;Ujfeherto Vasutallomas;47.8;21.7167
722679;Baktó;Baktó Vasúti Megállóhely;Bakto Vasuti Megallohely;46.3;20.1667
715336;Szentes;Szentes Vasútállomás;Szentes Vasutallomas;46.6667;20.2833
3049879;Kiskunhalas;Kiskunhalas Vasútállomás;Kiskunhalas Vasutallomas;46.4333;19.5
3055027;Bicske;Bicske Vasútállomás;Bicske Vasutallomas;47.4833;18.6167
722838;Arad;Aradványpuszta Vasúti Megállóhely;Aradvanypuszta Vasuti Megallohely;47.6667;21.85
3054650;Budakalász;Budakalász Felső Vasúti Megállóhely;Budakalasz Felso Vasuti Megallohely;47.6333;19.05
715256;Szikszó;Szikszó Vasútállomás;Szikszo Vasutallomas;48.2;20.9333
3045179;Sopron;Sopron-GYSEV Pályaudvar;Sopron-GYSEV Palyaudvar;47.6782;16.586
3053433;Dunavarsány;Dunavarsány Vasúti Megállóhely;Dunavarsany Vasuti Megallohely;47.2667;19.0667
714699;Tiszaug;Tiszaug-Tiszahídfő Vasúti Megállóhely;Tiszaug-Tiszahidfo Vasuti Megallohely;46.8667;20.05
3044668;Szentgotthárd;Szentgotthárd Vasútállomás;Szentgotthard Vasutallomas;46.9571;16.2632
3045492;Sárszentmihály;Sárszentmihály Vasútállomás;Sarszentmihaly Vasutallomas;47.17;18.3148
717411;Nagycsécs;Nagycsécs Vasúti Megállóhely;Nagycsecs Vasuti Megallohely;47.9667;20.95
3055775;Babócsa;Babócsa Vasútállomás;Babocsa Vasutallomas;46.0333;17.35
716523;Pátyod;Pátyod Vasúti Megállóhely;Patyod Vasuti Megallohely;47.8492;22.6129
3053801;Daránypuszta;Daránypuszta Vasútállomás;Daranypuszta Vasutallomas;46.7667;18.15
3053020;Feketebézseny;Feketebézseny Vasúti Megállóhely;Feketebezseny Vasuti Megallohely;46.7167;17.5833
716264;Pusztapó;Pusztapó Vasúti Megállóhely;Pusztapo Vasuti Megallohely;47.1;20.45
3047870;Murakeresztúr;Murakeresztúr Vasútállomás;Murakeresztur Vasutallomas;46.3667;16.8667
3052400;Gamásza;Gamásza Vasúti Megállóhely;Gamasza Vasuti Megallohely;46.9333;18.1333
3055769;Bábonymegyer;Bábonymegyer Vasútállomás;Babonymegyer Vasutallomas;46.7456;18.1108
3050425;Kecskéscsárda;Kecskéscsárda Vasúti Megállóhely;Kecskescsarda Vasuti Megallohely;47.1833;19.9167
3046824;Öttevény;Öttevény Vasútállomás;Otteveny Vasutallomas;47.7333;17.4833
3045946;Rárós;Ráróspuszta Vasúti Megállóhely;Rarospuszta Vasuti Megallohely;48.2072;19.5416
3055641;Bakonygyirót;Bakonygyirót Vasúti Megállóhely;Bakonygyirot Vasuti Megallohely;47.4167;17.8
722372;Benedekvölgy;Benedekvölgy Vasúti Megállóhely;Benedekvolgy Vasuti Megallohely;47.4;21.3333
8410973;Sarród;Sarród Vasúti Megállóhely;Sarrod Vasuti Megallohely;47.6354;16.8566
3047406;Nemeske;Nemeske Vasúti Megállóhely;Nemeske Vasuti Megallohely;46.0167;17.7167
3044424;Szilsárkány;Szilsárkány Vasúti Megállóhely;Szilsarkany Vasuti Megallohely;47.5589;17.2373
3042588;Zalaszentmihály-Pacsa;Zalaszentmihály-Pacsa Vasútállomás;Zalaszentmihaly-Pacsa Vasutallomas;46.7167;16.95
6694196;Szombathely-Repülőtér;Szombathely-Repülőtér mh.;Szombathely-Repueloter mh.;47.2678;16.6189
720491;Göncruszka;Göncruszka Vasúti Megállóhely;Goncruszka Vasuti Megallohely;48.45;21.25
715072;Szőreg;Szőreg Vasútállomás;Szoreg Vasutallomas;46.2;20.1833
3047202;Ócsa;Ócsa Vasútállomás;Ocsa Vasutallomas;47.3;19.2333
3045885;Répáspuszta;Répáspuszta Vasúti Megállóhely;Repaspuszta Vasuti Megallohely;46.4333;17.8333
3046504;Pécsvárad;Pécsvárad Vasútállomás;Pecsvarad Vasutallomas;46.1572;18.4319
3055630;Bakonypéterd;Bakonypéterd Vasúti Megállóhely;Bakonypeterd Vasuti Megallohely;47.4667;17.8
717266;Nagykereki;Nagykereki Vasútállomás;Nagykereki Vasutallomas;47.1833;21.8
716341;Porcsalma-Tyukod;Porcsalma-Tyukod Vasútállomás;Porcsalma-Tyukod Vasutallomas;47.8676;22.5691
721222;Eger-Tihamér;Eger-Tihamér Vasútállomás;Eger-Tihamer Vasutallomas;47.8833;20.4
717903;Maklár;Maklár Vasútállomás;Maklar Vasutallomas;47.8;20.4167
3046350;Piliscsaba;Piliscsaba Vasútállomás;Piliscsaba Vasutallomas;47.6333;19.8333
3053134;Fácánkert;Fácánkert Vasúti Megállóhely;Facankert Vasuti Megallohely;46.4389;18.7431
717278;Nagykálló;Nagykálló Vasútállomás;Nagykallo Vasutallomas;47.8726;21.8248
3055366;Barcs;Barcs Vasútállomás;Barcs Vasutallomas;45.95;17.45
3043859;Tököl;Tököl Vasútállomás;Tokol Vasutallomas;47.3167;18.9833
3045474;Sashalom;Sashalom Vasúti Megállóhely;Sashalom Vasuti Megallohely;47.5091;19.1791
715456;Szászberek;Szászberek Vasútállomás;Szaszberek Vasutallomas;47.3167;20.1
3055706;Bagod;Bagodvitenyéd Vasútállomás;Bagodvitenyed Vasutallomas;46.8833;16.75
3043359;Ukk;Ukk Vasútállomás;Ukk Vasutallomas;47.0367;17.1979
3051966;Győrszentiván;Győrszentiván Vasútállomás;Gyorszentivan Vasutallomas;47.6882;17.7458
3052356;Gecse-Gyarmat;Gecse-Gyarmat Vasútállomás;Gecse-Gyarmat Vasutallomas;47.45;17.5167
3046378;Petőháza;Petőháza Vasútállomás;Petohaza Vasutallomas;47.5957;16.8895
3045164;Sorkifalud;Sorkifalud Vasúti Megállóhely;Sorkifalud Vasuti Megallohely;47.1333;16.7167
3054546;Cece;Cece Vasútállomás;Cece Vasutallomas;46.772;18.6245
3048890;Leányvár;Leányvár Vasútállomás;Leanyvar Vasutallomas;47.6872;18.7735
3056288;Almásfüzitő;Almásfüzitő Vasútállomás;Almasfuzito Vasutallomas;47.7252;18.262
3042556;Zebegény;Zebegény Vasútállomás;Zebegeny Vasutallomas;47.8;18.9167
3044086;Taszár;Taszár Vasútállomás;Taszar Vasutallomas;46.3639;17.8934
717075;Nagytőke;Nagytőke Vasútállomás;Nagytoke Vasutallomas;46.7667;20.3
718750;Kistőke;Kistőke Vasúti Megállóhely;Kistoke Vasuti Megallohely;46.7167;20.2833
714758;Tiszajenő-Vezseny;Tiszajenő-Vezseny Vasútállomás;Tiszajeno-Vezseny Vasutallomas;47.0333;20.15
3052571;Fonyód;Fonyód Vasútállomás;Fonyod Vasutallomas;46.75;17.5667
3046702;Pamuk;Pamuk Vasúti Megállóhely;Pamuk Vasuti Megallohely;46.55;17.6667
3055606;Baktüttös;Baktüttös Vasúti Megállóhely;Baktuttos Vasuti Megallohely;46.7;16.8333
3056356;Ajka-Gyártelep;Ajka-Gyártelep Vasúti Megállóhely;Ajka-Gyartelep Vasuti Megallohely;47.0967;17.555
717740;Medgyes;Medgyesegyháza Vasútállomás;Medgyesegyhaza Vasutallomas;46.5;21.0333
3052618;Fityeház;Fityeház Vasúti Megállóhely;Fityehaz Vasuti Megallohely;46.3667;16.9167
721139;Erdőbénye;Erdőbénye Vasúti Megállóhely;Erdobenye Vasuti Megallohely;48.2167;21.4
3052222;Gógánfa;Gógánfa Vasútállomás;Goganfa Vasutallomas;47.0167;17.2167
718573;Koportos;Koportos Vasúti Megállóhely;Koportos Vasuti Megallohely;48.1089;22.2942
3042597;Zalaszentiván;Zalaszentiván Vasútállomás;Zalaszentivan Vasutallomas;46.8833;16.8833
3044670;Szentgál;Szentgál Vasútállomás;Szentgal Vasutallomas;47.1371;17.7057
3042644;Zalabér;Zalabér-Batyk Vasútállomás;Zalaber-Batyk Vasutallomas;46.9831;17.0406
3054540;Ceglédbercel;Ceglédbercel Vasúti Megállóhely;Cegledbercel Vasuti Megallohely;47.2167;19.6667
720338;Győrtelek;Győrtelek Vasúti Megállóhely;Gyortelek Vasuti Megallohely;47.9333;22.4333
3050151;Királyegyháza-Rigópuszta;Királyegyháza-Rigópuszta Vasúti Megállóhely;Kiralyegyhaza-Rigopuszta Vasuti Megallohely;46.0;17.9667
717484;Murony;Murony Vasútállomás;Murony Vasutallomas;46.7667;20.05
3052628;Filatorigát;Filatorigát Vasúti Megállóhely;Filatorigat Vasuti Megallohely;47.553;19.0458
717660;Mezőhegyes;Mezőhegyes Vasútállomás;Mezohegyes Vasutallomas;46.3167;20.8167
3055891;Aquincum;Aquincum felső Vasúti Megállóhely;Aquincum felso Vasuti Megallohely;47.5656;19.0538
3044159;Tápiógyörgye;Tápiógyörgye Vasútállomás;Tapiogyorgye Vasutallomas;47.3167;19.9667
717222;Nagymajor;Nagymajor Vasúti Megállóhely;Nagymajor Vasuti Megallohely;47.65;20.9833
3046175;Pötréte;Pötréte Vasúti Megállóhely;Potrete Vasuti Megallohely;46.6833;16.95
719769;Ináncs;Ináncs Vasúti Megállóhely;Inancs Vasuti Megallohely;48.2833;21.0667
3052539;Fót;Fót Vasútállomás;Fot Vasutallomas;47.6167;19.1833
721067;Fábiánsebestyén;Fábiánsebestyén Vasútállomás;Fabiansebestyen Vasutallomas;46.6667;20.45
3047208;Óbuda;Óbuda Vasútállomás;Obuda Vasutallomas;47.5695;19.0308
719916;Homok;Homok Vasúti Megállóhely;Homok Vasuti Megallohely;46.95;20.2667
3045340;Simontornya;Simontornya Vasútállomás;Simontornya Vasutallomas;46.75;18.5333
3046576;Pásztó;Pásztó Vasútállomás;Paszto Vasutallomas;47.9167;19.6833
3052106;Gutorfölde;Gutorfölde Vasútállomás;Gutorfolde Vasutallomas;46.65;16.75
3053161;Esztergom-Kertváros;Esztergom-Kertváros Vasútállomás;Esztergom-Kertvaros Vasutallomas;47.75;18.7333
715706;Sóshalom;Sóshalom Vasúti Megállóhely;Soshalom Vasuti Megallohely;46.4833;20.4833
722844;Apavára;Apavára Vasúti Megállóhely;Apavara Vasuti Megallohely;47.3167;21.0167
3047981;Mogyorósbánya;Mogyorósbánya Vasúti Megállóhely;Mogyorosbanya Vasuti Megallohely;47.75;18.6
717974;Mád;Mád Vasútállomás;Mad Vasutallomas;48.1833;21.2667
718722;Kiszombor;Kiszombor Vasútállomás;Kiszombor Vasutallomas;46.1833;20.4167
714792;Tiszabercel;Tiszabercel Vasútállomás;Tiszabercel Vasutallomas;48.1667;21.6
718806;Kisszekeres;Kisszekeres Vasúti Megállóhely;Kisszekeres Vasuti Megallohely;47.9667;22.6333
3049895;Kiskőrös;Kiskőrös Vasútállomás;Kiskoros Vasutallomas;46.6333;19.3
3043677;Tura;Tura Vasútállomás;Tura Vasutallomas;47.6257;19.6007
3048843;Lentiszombathely;Lentiszombathely Vasúti Megállóhely;Lentiszombathely Vasuti Megallohely;46.6167;16.5667
3047362;Neszmély;Neszmély Vasútállomás;Neszmely Vasutallomas;47.7344;18.3472
3044896;Szárazd;Szárazd Vasúti Megállóhely;Szarazd Vasuti Megallohely;46.5967;18.4254
719690;Jám;Jámborhalom Vasúti Megállóhely;Jamborhalom Vasuti Megallohely;46.75;20.3
715299;Szerencs;Szerencs Vasútállomás;Szerencs Vasutallomas;48.15;21.2
3055190;Belezna;Belezna Vasúti Megállóhely;Belezna Vasuti Megallohely;46.3333;16.8833
715004;Taktaszada;Taktaszada Vasúti Megállóhely;Taktaszada Vasuti Megallohely;48.1167;21.15
3045946;Rárós;Ráróspuszta Vasúti Megállóhely;Rarospuszta Vasuti Megallohely;48.2072;19.5416
3045036;Szabadegyháza;Szabadegyháza Vasútállomás;Szabadegyhaza Vasutallomas;47.0833;18.7167
3045938;Rátót;Rátót Vasútállomás;Ratot Vasutallomas;46.9667;16.4333
3054497;Cikó;Cikó Vasúti Megállóhely;Ciko Vasuti Megallohely;46.2667;18.5667
721220;Eger;Eger Vasútállomás;Eger Vasutallomas;47.8833;20.3833
722422;Bélapátfalvi Cementgyár;Bélapátfalvi Cementgyár Vasúti Megállóhely;Belapatfalvi Cementgyar Vasuti Megallohely;48.0667;20.3667
3044566;Szentmártonkáta;Szentmártonkáta Vasúti Megállóhely;Szentmartonkata Vasuti Megallohely;47.4274;19.6952
3054584;Bükkösd;Bükkösd Vasútállomás;Bukkosd Vasutallomas;46.1125;17.9998
3045397;Selymes;Selymes Vasúti Megállóhely;Selymes Vasuti Megallohely;46.65;19.8667
3049750;Kisszállás;Kisszállás Vasútállomás;Kisszallas Vasutallomas;46.279;19.5381
718320;Kunhegyes;Kunhegyes Vasútállomás;Kunhegyes Vasutallomas;47.3833;20.65
3053236;Erdőszél;Erdőszél Vasúti Megállóhely;Erdoszel Vasuti Megallohely;46.3333;19.4
714703;Tiszatelek;Tiszatelek Vasútállomás;Tiszatelek Vasutallomas;48.1667;21.7833
714597;Torna;Tornanádaska Vasútállomás;Tornanadaska Vasutallomas;48.5667;20.8
3043211;Vámoscsalád;Vámoscsalád Vasúti Megállóhely;Vamoscsalad Vasuti Megallohely;47.3851;16.9604
719966;Hodász;Hodász Vasútállomás;Hodasz Vasutallomas;47.9;22.2167
718311;Kunszentmárton-Érpart;Kunszentmárton-Érpart Vasúti Megállóhely;Kunszentmarton-Erpart Vasuti Megallohely;46.8333;20.3
3053908;Csörög;Csörög Vasúti Megállóhely;Csorog Vasuti Megallohely;47.7333;19.2
3050871;Jobbágyi;Jobbágyi Vasúti Megállóhely;Jobbagyi Vasuti Megallohely;47.8333;19.6833
716859;Ófehértó;Ófehértó Vasútállomás;Ofeherto Vasutallomas;47.95;22.05
3054003;Csóka;Csókakő Vasúti Megállóhely;Csokako Vasuti Megallohely;47.3333;18.2333
3046502;Pécs;Pécs Vasútállomás;Pecs Vasutallomas;46.0667;18.2333
721403;Déva;Dévaványa Vasútállomás;Devavanya Vasutallomas;47.0333;20.95
3050579;Karakószörcsök;Karakószörcsök Vasúti Megállóhely;Karakoszorcsok Vasuti Megallohely;47.1337;17.2876
3055600;Balassagyarmat;Balassagyarmat Vasútállomás;Balassagyarmat Vasutallomas;48.0833;19.3167
3047943;Molvány;Molvány Vasúti Megállóhely;Molvany Vasuti Megallohely;46.0333;17.75
714696;Tiszaújváros;Tiszaújváros Vasútállomás;Tiszaujvaros Vasutallomas;47.9167;21.05
721442;Demecser;Demecser Vasútállomás;Demecser Vasutallomas;48.1167;21.95
3047312;Nyárjas;Nyárjas Vasútállomás;Nyarjas Vasutallomas;46.8667;19.9333
3056269;Alsóbélatelep;Alsóbélatelep Vasúti Megállóhely;Alsobelatelep Vasuti Megallohely;46.7333;17.5333
3042940;Vértesszőlős;Vértesszőlős Vasúti Megállóhely;Vertesszolos Vasuti Megallohely;47.6167;18.3833
719557;Justhmajor;Justhmajor Vasúti Megállóhely;Justhmajor Vasuti Megallohely;46.6333;20.6167
720025;Hernádnémeti-Bőcs;Hernádnémeti-Bőcs Vasútállomás;Hernadnemeti-Bocs Vasutallomas;48.05;20.9833
714753;Tiszakécske;Tiszakécske Vasútállomás;Tiszakecske Vasutallomas;46.9333;20.0833
720572;Gégény;Gégény Vasúti Megállóhely;Gegeny Vasuti Megallohely;48.1333;21.9667
719389;Kardoskút;Kardoskút Vasútállomás;Kardoskut Vasutallomas;46.4833;20.6667
3048173;Méntelek;Méntelek Vasúti Megállóhely;Mentelek Vasuti Megallohely;46.9667;19.5833
3043879;Tófej;Tófej Vasúti Megállóhely;Tofej Vasuti Megallohely;46.6667;16.8
3050634;Kaposfüred;Kaposfüred Vasútállomás;Kaposfured Vasutallomas;46.4161;17.7589
716798;Ongaújfalu;Ongaújfalu Vasúti Megállóhely;Ongaujfalu Vasuti Megallohely;48.15;20.9167
3053692;Dinnyés;Dinnyés Vasútállomás;Dinnyes Vasutallomas;47.1767;18.5514
719397;Karcag;Karcag Vasútállomás;Karcag Vasutallomas;47.3;20.9333
3045189;Sopron-Déli;Sopron-Déli Pályaudvar;Sopron-Deli Palyaudvar;47.6865;16.5716
721464;Debrecen-Vásártér;Debrecen-Vásártér Vasútállomás;Debrecen-Vasarter Vasutallomas;47.55;21.6
3045495;Sárszentágota;Sárszentágota Vasúti Megállóhely;Sarszentagota Vasuti Megallohely;46.9667;18.5833
719653;Jászapáti;Jászapáti Vasútállomás;Jaszapati Vasutallomas;47.5167;20.0667
3043355;Üllő;Üllő vasútállomás;UEllo vasutallomas;47.3908;19.3528
3043071;Vasas-Hird;Vasas-Hird Vasútállomás;Vasas-Hird Vasutallomas;46.1167;18.35
3045038;Szabadbattyán;Szabadbattyán Vasútállomás;Szabadbattyan Vasutallomas;47.105;18.3905
3055733;Badacsonylábdihegy;Badacsonylábdihegy Vasúti Megállóhely;Badacsonylabdihegy Vasuti Megallohely;46.7899;17.4739
3044978;Szakály-Hőgyész;Szakály-Hőgyész Vasútállomás;Szakaly-Hogyesz Vasutallomas;46.5247;18.3892
3045636;Salköveskút-Vassurány;Salköveskút-Vassurány Vasúti Megállóhely;Salkoeveskut-Vassurany Vasuti Megallohely;47.2904;16.7027
714347;Ürgehát;Ürgehát Vasúti Megállóhely;Urgehat Vasuti Megallohely;47.1167;20.3667
3046291;Piszke;Piszke Vasúti Megállóhely;Piszke Vasuti Megallohely;47.75;18.4833
3048279;Mátravidéki Erőmű;Mátravidéki Erőmű Vasútállomás;Matravideki Eromu Vasutallomas;47.7167;19.6667
714790;Tiszabezdéd;Tiszabezdéd Vasúti Megállóhely;Tiszabezded Vasuti Megallohely;48.3667;22.15
722162;Bogárzó;Bogárzó Vasúti Megállóhely;Bogarzo Vasuti Megallohely;46.5333;20.6833
715373;Szelevény;Szelevény Vasútállomás;Szeleveny Vasutallomas;46.8167;20.1833
3049094;Kurd;Kurd Vasútállomás;Kurd Vasutallomas;46.4501;18.3192
3044474;Szigetszentmiklós;Szigetszentmiklós Gyártelep Vasútállomás;Szigetszentmiklos Gyartelep Vasutallomas;47.3333;19.0
3044367;Sződ-Sződliget;Sződ-Sződliget Vasúti Megállóhely;Szod-Szodliget Vasuti Megallohely;47.7283;19.155
722838;Arad;Aradványpuszta Vasúti Megállóhely;Aradvanypuszta Vasuti Megallohely;47.6667;21.85
721471;Debrecen-Csapókert;Debrecen-Csapókert Vasúti Megállóhely;Debrecen-Csapokert Vasuti Megallohely;47.5333;21.65
3051579;Hegyeshalom;Hegyeshalom Vasútállomás;Hegyeshalom Vasutallomas;47.9124;17.1481
3048156;Mernye;Mernye Vasútállomás;Mernye Vasutallomas;46.5167;17.8333
715309;Szepes;Szepes Vasúti Megállóhely;Szepes Vasuti Megallohely;47.45;21.6167
3045249;Somodor;Somodor Vasúti Megállóhely;Somodor Vasuti Megallohely;46.4833;17.8333
3050430;Kecskemét-Máriaváros;Kecskemét-Máriaváros Vasútállomás;Kecskemet-Mariavaros Vasutallomas;46.9;19.6667
718619;Komoró;Komoró Vasútállomás;Komoro Vasutallomas;48.3;22.1167
3047501;Nagytétény-Diósd;Nagytétény-Diósd Vasútállomás;Nagyteteny-Diosd Vasutallomas;47.3983;18.9723
721786;Csenger;Csenger Vasútállomás;Csenger Vasutallomas;47.8333;22.6667
3042930;Veszkény;Veszkény Vasúti Megállóhely;Veszkeny Vasuti Megallohely;47.5872;17.0995
719584;Józsa;Józsa Vasúti Megállóhely;Jozsa Vasuti Megallohely;47.6;21.5833
3050784;Kádárta;Kádárta Vasúti Megállóhely;Kadarta Vasuti Megallohely;47.1259;17.9531
3043230;Vajta;Vajta Vasútállomás;Vajta Vasutallomas;46.7151;18.6475
3046503;Pécs-Vasas;Pécs-Vasas Vasútállomás;Pecs-Vasas Vasutallomas;46.1167;18.3167
721408;Deszk;Deszk Vasúti Megállóhely;Deszk Vasuti Megallohely;46.2167;20.25
3044148;Tápiószentmárton;Tápiószentmárton Vasúti Megállóhely;Tapioszentmarton Vasuti Megallohely;47.3667;19.8
3043753;Tőserdő;Tőserdő Vasúti Megállóhely;Toserdo Vasuti Megallohely;46.85;19.9833
3051076;Isaszeg;Isaszeg Vasútállomás;Isaszeg Vasutallomas;47.5378;19.3892
3046933;Őrhalom;Őrhalom Vasúti Megállóhely;Orhalom Vasuti Megallohely;48.0772;19.3902
3044457;Szikra;Szikra Vasúti Megállóhely;Szikra Vasuti Megallohely;46.8667;19.9667
3046887;Oroszlány;Oroszlány Vasútállomás;Oroszlany Vasutallomas;47.4667;18.3167
3049103;Kunszállás;Kunszállás Vasúti Megállóhely;Kunszallas Vasuti Megallohely;46.7833;19.7667
3047780;Nagycenk;Nagycenk Vasútállomás;Nagycenk Vasutallomas;47.6011;16.6904
3051103;Ipolyvece;Ipolyvece Vasútállomás;Ipolyvece Vasutallomas;48.0667;19.1167
3056417;Ádánd;Ádánd Vasútállomás;Adand Vasutallomas;46.8559;18.1404
3048232;Meggyespele;Meggyespele Vasúti Megállóhely;Meggyespele Vasuti Megallohely;47.4333;19.95
3051511;Herend;Herend Vasútállomás;Herend Vasutallomas;47.1369;17.7606
3042759;Vokány;Vokány Vasútállomás;Vokany Vasutallomas;45.8991;18.3327
3046854;Öskü;Öskü Vasúti Megállóhely;Osku Vasuti Megallohely;47.1601;18.0748
3054755;Borsi;Borsihalom Vasúti Megállóhely;Borsihalom Vasuti Megallohely;46.7667;19.9167
3047418;Nemesgörzsöny;Nemesgörzsöny Vasúti Megállóhely;Nemesgorzsony Vasuti Megallohely;47.403;17.3764
716365;Pogonyipuszta;Pogonyipuszta Vasúti Megállóhely;Pogonyipuszta Vasuti Megallohely;48.3;20.3833
714471;Újbög;Újbög Vasútállomás;Ujbog Vasutallomas;46.9667;20.1
3054963;Boba;Boba Vasútállomás;Boba Vasutallomas;47.1826;17.1915
3047350;Nógrádkövesd;Nógrádkövesd Vasútállomás;Nogradkovesd Vasutallomas;47.8833;19.3833
3045882;Répcelak;Répcelak Vasútállomás;Repcelak Vasutallomas;47.4191;17.0091
3043650;Tüskevár;Tüskevár Vasútállomás;Tuskevar Vasutallomas;47.1287;17.3316
714618;Tompapuszta;Tompapuszta Vasúti Megállóhely;Tompapuszta Vasuti Megallohely;46.3167;20.9667
3054292;Csémpuszta;Csémpuszta Vasúti Megállóhely;Csempuszta Vasuti Megallohely;47.7038;18.1039
719964;Hódmezővásárhelyi Népkert;Hódmezővásárhelyi Népkert Vasúti Megállóhely;Hodmezovasarhelyi Nepkert Vasuti Megallohely;46.4;20.3
721469;Debrecen-Kertváros;Debrecen-Kertváros Vasúti Megállóhely;Debrecen-Kertvaros Vasuti Megallohely;47.5667;21.6
3050364;Kemenespálfa;Kemenespálfa Vasúti Megállóhely;Kemenespalfa Vasuti Megallohely;47.1398;17.1836
3051766;Hanságliget;Hanságliget Vasúti Megállóhely;Hansagliget Vasuti Megallohely;47.72;17.2155
3053551;Dör;Dör Vasúti Megállóhely;Doer Vasuti Megallohely;47.611;17.2782
3046410;Péterhida-Komlósd;Péterhida-Komlósd Vasúti Megállóhely;Peterhida-Komlosd Vasuti Megallohely;46.0167;17.3667
714778;Tiszadob;Tiszadob Vasútállomás;Tiszadob Vasutallomas;48.0;21.2167
3047650;Nagykőrös;Nagykőrös Vasútállomás;Nagykoros Vasutallomas;47.0333;19.75
3043713;Tóvároskert;Tóvároskert Vasúti Megállóhely;Tovaroskert Vasuti Megallohely;47.6487;18.3475
3045640;Salgótarján;Salgótarján Vasútállomás;Salgotarjan Vasutallomas;48.1;19.8
3056103;Alsónyék;Alsónyék Vasúti Megállóhely;Alsonyek Vasuti Megallohely;46.2;18.7333
3043785;Tormásliget;Tormásliget Vasúti Megállóhely;Tormasliget Vasuti Megallohely;47.4305;16.7823
721203;Egyházerdő;Egyházerdő Vasúti Megállóhely;Egyhazerdo Vasuti Megallohely;47.9833;21.3667
3047339;Normafa;Normafa Vasúti Megállóhely;Normafa Vasuti Megallohely;47.5005;18.9689
3046484;Perdócmajor;Perdócmajor Vasúti Megállóhely;Perdocmajor Vasuti Megallohely;46.2034;17.0801
714656;Tokaj;Tokaj Vasútállomás;Tokaj Vasutallomas;48.1;21.4167
3049060;Kutas;Kutas Vasúti Megállóhely;Kutas Vasuti Megallohely;46.3333;17.45
714699;Tiszaug;Tiszaug-Tiszahídfő Vasúti Megállóhely;Tiszaug-Tiszahidfo Vasuti Megallohely;46.8667;20.05
3045183;Sopronkövesd;Sopronkövesd Vasúti Megállóhely;Sopronkoevesd Vasuti Megallohely;47.5475;16.7485
3050374;Kemendollár;Kemendollár Vasúti Megállóhely;Kemendollar Vasuti Megallohely;46.9;16.9667
6690926;Nagytétény;Nagytétény Vasútállomás;Nagyteteny Vasutallomas;47.3883;18.9752
3053710;Devecser;Devecser Vasútállomás;Devecser Vasutallomas;47.1124;17.4355
3045109;Sövénykút;Sövénykút Vasúti Megállóhely;Sovenykut Vasuti Megallohely;47.4167;18.1333
3053487;Dunaföldvár;Dunaföldvár Vasútállomás;Dunafoldvar Vasutallomas;46.8;18.9167
3050593;Kapuvár;Kapuvár Vasútállomás;Kapuvar Vasutallomas;47.5817;17.044
3045478;Sásd;Sásd Vasútállomás;Sasd Vasutallomas;46.2667;18.1
715297;Szerep;Szerep Vasúti Megállóhely;Szerep Vasuti Megallohely;47.2333;21.1833
3055587;Balatonarács;Balatonarács Vasúti Megállóhely;Balatonaracs Vasuti Megallohely;46.9667;17.9
715447;Szatymaz;Szatymaz Vasútállomás;Szatymaz Vasutallomas;46.35;20.05
3052656;Ferenctelep;Ferenctelep Vasúti Megállóhely;Ferenctelep Vasuti Megallohely;45.9833;17.3833
3049643;Kőbánya-Kispest;Kőbánya-Kispest Vasútállomás;Kobanya-Kispest Vasutallomas;47.4643;19.149
718213;Lapistó;Lapistó Vasúti Megállóhely;Lapisto Vasuti Megallohely;46.6667;20.3333
3055532;Balatonszemes;Balatonszemes Vasútállomás;Balatonszemes Vasutallomas;46.8167;17.7833
3045916;Regöly;Regöly Vasúti Megállóhely;Regoly Vasuti Megallohely;46.5689;18.396
3050992;Ják-Balogunyom;Ják-Balogunyom Vasútállomás;Jak-Balogunyom Vasutallomas;47.1667;16.6333
3048453;Marcali;Marcali Vasútállomás;Marcali Vasutallomas;46.5838;17.4206
3056329;Alap;Alap Vasútállomás;Alap Vasutallomas;46.8315;18.6562
3048596;Magyarkeresztúr-Zsebeháza;Magyarkeresztúr-Zsebeháza Vasúti Megállóhely;Magyarkeresztur-Zsebehaza Vasuti Megallohely;47.5143;17.1761
3054443;Csák;Csákánydoroszló Vasútállomás;Csakanydoroszlo Vasutallomas;46.9667;16.5167
3046024;Ráckeve;Ráckeve Vasútállomás;Rackeve Vasutallomas;47.1833;18.85
3053741;Dénesfa;Dénesfa Vasúti Megállóhely;Denesfa Vasuti Megallohely;47.4488;17.0551
716855;Ohat-Pusztakócs;Ohat-Pusztakócs Vasútállomás;Ohat-Pusztakocs Vasutallomas;47.6167;20.95
3055562;Balatonfűzfő;Balatonfűzfő Vasútállomás;Balatonfuzfo Vasutallomas;47.05;18.05
721463;Debrecen;Debrecen Vasútállomás;Debrecen Vasutallomas;47.5193;21.6286
3050629;Kaposhomok;Kaposhomok Vasúti Megállóhely;Kaposhomok Vasuti Megallohely;46.3677;17.9206
3047200;Őcsény;Őcsény Vasútállomás;Ocseny Vasutallomas;46.3181;18.7432
3043523;Újkér;Újkér Vasúti Megállóhely;Ujker Vasuti Megallohely;47.4549;16.7871
714580;Törökszentmiklós;Törökszentmiklós Vasútállomás;Torokszentmiklos Vasutallomas;47.1667;20.4
3042599;Zalaszentgyörgy;Zalaszentgyörgy Vasútállomás;Zalaszentgyorgy Vasutallomas;46.8667;16.7167
3048724;Lőrinci;Lőrinci Vasútállomás;Lorinci Vasutallomas;47.7333;19.6667
3054725;Bősárkány;Bősárkány Vasútállomás;Bosarkany Vasutallomas;47.6856;17.2345
3047939;Monor;Monor Vasútállomás;Monor Vasutallomas;47.3333;19.45
717896;Makó-Újvásártér;Makó-Újvásártér Vasúti Megállóhely;Mako-Ujvasarter Vasuti Megallohely;46.2167;20.5167
720279;Hajdúsámson;Hajdúsámson Vasútállomás;Hajdusamson Vasutallomas;47.6167;21.7667
3053004;Feketehalom;Feketehalom Vasúti Megállóhely;Feketehalom Vasuti Megallohely;46.6;19.35
714489;Tuzsér;Tuzsér Vasútállomás;Tuzser Vasutallomas;48.35;22.15
3055517;Balatonvilágos;Balatonvilágos Vasúti Megállóhely;Balatonvilagos Vasuti Megallohely;46.9667;18.1667
3044864;Szárliget;Szárliget Vasútállomás;Szarliget Vasutallomas;47.5199;18.4957
3048628;Maglód;Maglód Vasútállomás;Maglod Vasutallomas;47.4333;19.3333
714592;Tornyos;Tornyospálca Vasútállomás;Tornyospalca Vasutallomas;48.2667;22.2
713904;Ziliz;Ziliz Vasúti Megállóhely;Ziliz Vasuti Megallohely;48.25;20.7833
719736;Istvánháza;Istvánháza Vasúti Megállóhely;Istvanhaza Vasuti Megallohely;46.85;20.25
3052947;Felsőbogátpuszta;Felsőbogátpuszta Vasúti Megállóhely;Felsobogatpuszta Vasuti Megallohely;46.35;17.3833
3050753;Kákics;Kákics Vasúti Megállóhely;Kakics Vasuti Megallohely;45.9;17.85
3053482;Dunaharaszti;Dunaharaszti Vasútállomás;Dunaharaszti Vasutallomas;47.35;19.1
3047891;Mosonszolnok;Mosonszolnok Vasútállomás;Mosonszolnok Vasutallomas;47.8522;17.1605
3055530;Balatonszentgyörgy;Balatonszentgyörgy Vasútállomás;Balatonszentgyorgy Vasutallomas;46.6948;17.2921
3051497;Hernád;Hernád Vasútállomás;Hernad Vasutallomas;47.161;19.4042
6694195;Kámon;Kámon Vasúti Megállóhely;Kamon Vasuti Megallohely;47.2543;16.6259
3046815;Ötvöskónyi;Ötvöskónyi Vasúti Megállóhely;Otvoskonyi Vasuti Megallohely;46.2833;17.3667
717067;Nagyút;Nagyút Vasútállomás;Nagyut Vasutallomas;47.7333;20.1667
718743;Kisújszállás;Kisújszállás Vasútállomás;Kisujszallas Vasutallomas;47.2167;20.75
3055684;Baja-Dunafürdő;Baja-Dunafürdő Vasúti Megállóhely;Baja-Dunafurdo Vasuti Megallohely;46.1924;18.9213
714361;Újvár;Újváros Vasúti Megállóhely;Ujvaros Vasuti Megallohely;46.65;20.5333
3056125;Alsóméntelek;Alsóméntelek Vasúti Megállóhely;Alsomentelek Vasuti Megallohely;46.9667;19.5833
3055729;Badacsonytomaj;Badacsonytomaj Vasútállomás;Badacsonytomaj Vasutallomas;46.8;17.5167
3052237;Godisa;Godisa Vasútállomás;Godisa Vasutallomas;46.2224;18.1156
719208;Kerekdomb;Kerekdomb Vasúti Megállóhely;Kerekdomb Vasuti Megallohely;46.9;20.05
3046860;Örvényes;Örvényes Vasúti Megállóhely;Orvenyes Vasuti Megallohely;46.9167;17.8167
3045503;Sárpentele;Sárpentele Vasúti Megállóhely;Sarpentele Vasuti Megallohely;47.1689;18.3605
3056440;Ábrahámhegy;Ábrahámhegy Vasúti Megállóhely;Abrahamhegy Vasuti Megallohely;46.8153;17.5732
720275;Hajdúszoboszló;Hajdúszoboszló Vasútállomás;Hajduszoboszlo Vasutallomas;47.4333;21.4
721774;Csépa;Csépa Vasútállomás;Csepa Vasutallomas;46.8167;20.1167
723034;Abaújszántó;Abaújszántó Vasútállomás;Abaujszanto Vasutallomas;48.2833;21.1833
3051961;Győr;Győr Railway Station;Gyor Railway Station;47.6818;17.6338
715840;Sáta;Sáta Vasúti Megállóhely;Sata Vasuti Megallohely;48.1833;20.3833
714887;Telekföld;Telekföld Vasúti Megállóhely;Telekfold Vasuti Megallohely;47.6;21.4167
3044350;Szokolya;Szokolya Vasútállomás;Szokolya Vasutallomas;47.8713;19.0305
3055822;Aszód;Aszód Vasútállomás;Aszod Vasutallomas;47.65;19.5
3050958;Jánosháza;Jánosháza Vasútállomás;Janoshaza Vasutallomas;47.1167;17.1667
3049488;Kóny;Kóny Vasútállomás;Kony Vasutallomas;47.6325;17.3585
3043292;Vác-Alsóváros;Vác-Alsóváros Vasúti Megállóhely;Vac-Alsovaros Vasuti Megallohely;47.7667;19.15
719249;Kende;Kenderes Vasútállomás;Kenderes Vasutallomas;47.2667;20.6833
3053973;Csömödér-Páka;Csömödér-Páka Vasútállomás;Csomoder-Paka Vasutallomas;46.6081;16.6447
3042887;Világoshegy;Világoshegy Vasúti Megállóhely;Vilagoshegy Vasuti Megallohely;46.8667;19.95
713987;Vitka;Vitka Vasútállomás;Vitka Vasutallomas;48.1;22.3167
3048585;Magyarnándor;Magyarnándor Vasútállomás;Magyarnandor Vasutallomas;47.9667;19.35
3047575;Nagyrécse;Nagyrécse Vasútállomás;Nagyrecse Vasutallomas;46.4667;17.05
3045244;Somogyaszaló;Somogyaszaló Vasúti Megállóhely;Somogyaszalo Vasuti Megallohely;46.45;17.8333
720825;Ferenctanya;Ferenctanya Vasúti Megállóhely;Ferenctanya Vasuti Megallohely;48.0167;21.5833
722572;Bánréve;Bánréve Vasútállomás;Banreve Vasutallomas;48.3;20.35
3047985;Mogyoród;Mogyoród Vasútállomás;Mogyorod Vasutallomas;47.5957;19.272
3053379;Egervár-Vasboldogasszony;Egervár-Vasboldogasszony Vasútállomás;Egervar-Vasboldogasszony Vasutallomas;46.9333;16.8667
3044527;Szepezdfürdő;Szepezdfürdő Vasúti Megállóhely;Szepezdfurdo Vasuti Megallohely;46.85;17.65
717395;Nagyecsed;Nagyecsed Vasútállomás;Nagyecsed Vasutallomas;47.8833;22.3833
3052416;Galgamácsa;Galgamácsa Vasútállomás;Galgamacsa Vasutallomas;47.7;19.3833
716843;Ököritó;Ököritófülpös Vasúti Megállóhely;Okoritofulpos Vasuti Megallohely;47.9167;22.5
3049110;Kunfehértó;Kunfehértó Vasútállomás;Kunfeherto Vasutallomas;46.3667;19.4167
721546;Csugar;Csugar Vasútállomás;Csugar Vasutallomas;47.05;20.55
3053282;Ercsi;Ercsi Vasútállomás;Ercsi Vasutallomas;47.25;18.8833
3049359;Kőszeg;Kőszeg Vasútállomás;Koszeg Vasutallomas;47.3817;16.5568
3050586;Karád;Karád Vasútállomás;Karad Vasutallomas;46.68;17.8746
722635;Balmazújváros;Balmazújváros Vasútállomás;Balmazujvaros Vasutallomas;47.6167;21.3333
721149;Eperjes;Eperjeske Alsó Vasúti Megállóhely;Eperjeske Also Vasuti Megallohely;48.3333;22.2
722221;Bocskaikert;Bocskaikert Vasúti Megállóhely;Bocskaikert Vasuti Megallohely;47.65;21.6667
3047409;Nemeskér-Egyházasfalu;Nemeskér-Egyházasfalu Vasúti Megállóhely;Nemesker-Egyhazasfalu Vasuti Megallohely;47.4784;16.7849
3051565;Hegyfalu;Hegyfalu Vasútállomás;Hegyfalu Vasutallomas;47.3578;16.8982
3047924;Mórágy-Alsónána;Mórágy-Alsónána Vasúti Megállóhely;Moragy-Alsonana Vasuti Megallohely;46.2226;18.658
3045696;Rudics;Rudics Vasútállomás;Rudics Vasutallomas;46.1333;19.35
3043188;Váralja;Váralja Vasúti Megállóhely;Varalja Vasuti Megallohely;46.2833;18.4333
3052337;Gelse;Gelse Vasútállomás;Gelse Vasutallomas;46.6;17.0
715955;Sajómercse;Sajómercse Vasúti Megállóhely;Sajomercse Vasuti Megallohely;48.2667;20.4333
3042615;Zalalövő;Zalalövő Vasútállomás;Zalalovo Vasutallomas;46.85;16.55
3052572;Fonyódliget;Fonyódliget Vasúti Megállóhely;Fonyodliget Vasuti Megallohely;46.759;17.5914
3043367;Újvenyim;Újvenyim Vasúti Megállóhely;Ujvenyim Vasuti Megallohely;46.9366;18.8719
714072;Vésztő;Vésztő Vasútállomás;Veszto Vasutallomas;46.95;21.2667
3049706;Kisterenye;Kisterenye Vasútállomás;Kisterenye Vasutallomas;48.0099;19.8324
3047961;Moha;Moha Vasútállomás;Moha Vasutallomas;47.2469;18.3398
3054821;Bóly;Bóly Vasútállomás;Boly Vasutallomas;45.9387;18.5379
3045990;Rajka;Rajka Vasútállomás;Rajka Vasutallomas;48.0;17.2
3042577;Zamárdi;Zamárdi Vasúti Megállóhely;Zamardi Vasuti Megallohely;46.8833;17.9
3055583;Balatonboglár;Balatonboglár Vasútállomás;Balatonboglar Vasutallomas;46.7833;17.6667
3052041;Gyöngyfa-Magyarmecske;Gyöngyfa-Magyarmecske Vasúti Megállóhely;Gyongyfa-Magyarmecske Vasuti Megallohely;45.9833;17.9667
722390;Belsőperegpuszta;Belsőperegpuszta Vasúti Megállóhely;Belsoperegpuszta Vasuti Megallohely;46.3167;20.9167
3046836;Osztopán;Osztopán Vasútállomás;Osztopan Vasutallomas;46.5167;17.65
3049099;Kunszentmiklós-Tass;Kunszentmiklós-Tass Vasútállomás;Kunszentmiklos-Tass Vasutallomas;47.017;19.1012
3050427;Kecskemét;Kecskemét Vasútállomás;Kecskemet Vasutallomas;46.9167;19.7
3044771;Székesfehérvár;Székesfehérvár Vasútállomás;Szekesfehervar Vasutallomas;47.1831;18.4244
3056422;Adács;Adács Vasúti Megállóhely;Adacs Vasuti Megallohely;47.6966;19.9761
716947;Nyírbátor;Nyírbátor Vasútállomás;Nyirbator Vasutallomas;47.85;22.1167
3055037;Biatorbágy;Biatorbágy Vasútállomás;Biatorbagy Vasutallomas;47.4667;18.8333
718483;Kősziget;Kősziget Vasúti Megállóhely;Kosziget Vasuti Megallohely;47.0;20.9
719272;Kék;Kék Vasúti Megállóhely;Kek Vasuti Megallohely;48.1;21.8833
722996;Ajak;Ajak Vasúti Megállóhely;Ajak Vasuti Megallohely;48.1833;22.05
718112;Létavértes;Létavértes Vasútállomás;Letavertes Vasutallomas;47.4;21.8833
3055086;Berkenye;Berkenye Vasútállomás;Berkenye Vasutallomas;47.8833;19.0667
714740;Tiszalök;Tiszalök Vasútállomás;Tiszalok Vasutallomas;48.0167;21.3667
3049363;Kőszegfalva;Kőszegfalva Vasúti Megállóhely;Koszegfalva Vasuti Megallohely;47.3616;16.5677
714691;Tiszavasvári;Tiszavasvári Vasútállomás;Tiszavasvari Vasutallomas;47.9667;21.3833
8426436;Rábahíd;Rábahíd Vasúti Megállóhely;Rabahid Vasuti Megallohely;47.4369;17.3394
3052020;Gyöngyös;Gyöngyös Vasútállomás;Gyongyos Vasutallomas;47.7833;19.9333
3046506;Pécsújhegy;Pécsújhegy Vasúti Megállóhely;Pecsujhegy Vasuti Megallohely;46.0833;18.2833
713909;Zelemér;Zelemér Vasúti Megállóhely;Zelemer Vasuti Megallohely;47.6333;21.5833
3044293;Szőny;Szőny Vasúti Megállóhely;Szony Vasuti Megallohely;47.7359;18.1767
3051239;Hugyag;Hugyag Vasúti Megállóhely;Hugyag Vasuti Megallohely;48.0827;19.4231
3046194;Pósfa;Pósfa Vasúti Megállóhely;Posfa Vasuti Megallohely;47.327;16.8558
3045410;Segesd;Segesd Vasúti Megállóhely;Segesd Vasuti Megallohely;46.3333;17.3333
3054278;Csengőd;Csengőd Vasútállomás;Csengod Vasutallomas;46.7167;19.2833
3050021;Kisfái;Kisfái Vasúti Megállóhely;Kisfai Vasuti Megallohely;46.8833;19.8
3049035;Lábatlan;Lábatlan Vasútállomás;Labatlan Vasutallomas;47.75;18.5167
3047671;Nagykarácsony;Nagykarácsony Vasútállomás;Nagykaracsony Vasutallomas;46.8667;18.7833
718631;Komját;Komjáti Vasúti Megállóhely;Komjati Vasuti Megallohely;48.55;20.7667
3051970;Győrszabadhegy;Győrszabadhegy Vasútállomás;Gyorszabadhegy Vasutallomas;47.6625;17.6475
3047160;Ölbő-Alsószeleste;Ölbő-Alsószeleste Vasútállomás;Olbo-Alsoszeleste Vasutallomas;47.3003;16.8435
3048572;Magyarszerdahely;Magyarszerdahely Vasúti Megállóhely;Magyarszerdahely Vasuti Megallohely;46.55;17.0
719650;Jászboldogháza-Jánoshida;Jászboldogháza-Jánoshida Vasútállomás;Jaszboldoghaza-Janoshida Vasutallomas;47.3682;20.0005
715568;Szajol;Szajol Vasútállomás;Szajol Vasutallomas;47.1667;20.3
3055824;Ászár;Ászár Vasúti Megállóhely;Aszar Vasuti Megallohely;47.5167;18.0167
3052643;Fertőendréd;Fertőendréd Vasútállomás;Fertoendred Vasutallomas;47.5896;16.9332
715612;Szabadkígyós;Szabadkígyós Vasútállomás;Szabadkigyos Vasutallomas;46.6;21.1333
3052646;Fertőboz;Fertőboz Vasútállomás;Fertoboz Vasutallomas;47.6253;16.6917
718887;Kismarja;Kismarja Vasútállomás;Kismarja Vasutallomas;47.25;21.8167
3044573;Szentlőrinc;Szentlőrinc Vasútállomás;Szentlorinc Vasutallomas;46.0333;18.0
3048575;Magyarszék;Magyarszék Vasútállomás;Magyarszek Vasutallomas;46.2;18.2
3052046;Gyömöre;Gyömöre Vasútállomás;Gyomore Vasutallomas;47.4868;17.5598
721984;Buj;Buj Vasútállomás;Buj Vasutallomas;48.1;21.65
3042917;Vica;Vica Vasúti Megállóhely;Vica Vasuti Megallohely;47.4777;17.1117
3042620;Zalakomár;Zalakomár Vasútállomás;Zalakomar Vasutallomas;46.5333;17.1833
3051811;Halesz;Halesz Vasúti Megállóhely;Halesz Vasuti Megallohely;46.6667;19.8167
3049794;Kispest;Kispest Vasútállomás;Kispest Vasutallomas;47.4478;19.1575
3052635;Fertőújlak;Fertőújlak Vasútállomás;Fertoujlak Vasutallomas;47.6792;16.8765
717343;Nagyhalász;Nagyhalász Vasútállomás;Nagyhalasz Vasutallomas;48.15;21.7667
714993;Tamásipuszta;Tamásipuszta Vasúti Megállóhely;Tamasipuszta Vasuti Megallohely;47.6333;21.8
3045835;Rév;Révfülöp Vasútállomás;Revfulop Vasutallomas;46.8333;17.6333
3043911;Tímár utca;Tímár utca vasúti megállóhely;Timar utca vasuti megallohely;47.5335;19.044
3054247;Cserdi-Helesfa;Cserdi-Helesfa Vasúti Megállóhely;Cserdi-Helesfa Vasuti Megallohely;46.0667;18.0
3046868;Ortaháza;Ortaháza Vasúti Megállóhely;Ortahaza Vasuti Megallohely;46.6167;16.6833
3042611;Zalapatakalja;Zalapatakalja Vasúti Megállóhely;Zalapatakalja Vasuti Megallohely;46.85;16.6
716953;Nyírábrány;Nyírábrány Vasútállomás;Nyirabrany Vasutallomas;47.5239;22.0166
3043817;Tompa;Tompa Vasúti Megállóhely;Tompa Vasuti Megallohely;46.2197;19.5885
719885;Hortobágy;Hortobágy Vasútállomás;Hortobagy Vasutallomas;47.5833;21.1667
3054941;Bodakajtor-Felsőszentiván;Bodakajtor-Felsőszentiván Vasútállomás;Bodakajtor-Felsoszentivan Vasutallomas;47.0738;18.5084
3046432;Pestszentlőrinc;Pestszentlőrinc Vasútállomás;Pestszentlorinc Vasutallomas;47.4551;19.1826
720282;Hajdúnánás;Hajdúnánás Vasútállomás;Hajdunanas Vasutallomas;47.8333;21.3333
3054873;Böhönye;Böhönye Vasútállomás;Bohonye Vasutallomas;46.4106;17.4068
3048851;Lengyeltóti;Lengyeltóti Vasútállomás;Lengyeltoti Vasutallomas;46.65;17.6167
3044216;Tabdi;Tabdi Vasúti Megállóhely;Tabdi Vasuti Megallohely;46.6833;19.2833
3043277;Vác;Vác Vasútállomás;Vac Vasutallomas;47.7833;19.1333
720318;Gyula;Gyula Vasútállomás;Gyula Vasutallomas;46.65;21.2833
3054943;Bodajk;Bodajk Vasútállomás;Bodajk Vasutallomas;47.3167;18.25
714309;Vad;Vadna Vasúti Megállóhely;Vadna Vasuti Megallohely;48.2833;20.55
3053937;Csopak;Csopak Vasúti Megállóhely;Csopak Vasuti Megallohely;46.9833;17.9333
3051490;Hetény;Hetényegyháza Vasútállomás;Hetenyegyhaza Vasutallomas;46.9167;19.6
3052638;Fertőszentmiklós;Fertőszentmiklós Vasútállomás;Fertoszentmiklos Vasutallomas;47.5998;16.8597
722279;Biharkeresztes;Biharkeresztes Vasútállomás;Biharkeresztes Vasutallomas;47.1333;21.7167
716875;Nyulas;Nyulas Vasúti Megállóhely;Nyulas Vasuti Megallohely;47.5667;21.6
718877;Kismicske;Kismicske Vasúti Megállóhely;Kismicske Vasuti Megallohely;47.75;21.7
3050289;Kerepes;Kerepestarcsa Alsó Vasútállomás;Kerepestarcsa Also Vasutallomas;47.55;19.2667
3053596;Dombay-tó;Dombay-tó Vasúti Megállóhely;Dombay-to Vasuti Megallohely;46.1448;18.3985
3042632;Zalagyömörő;Zalagyömörő Vasúti Megállóhely;Zalagyomoro Vasuti Megallohely;47.0167;17.2167
3055545;Balatonmáriafürdő;Balatonmáriafürdő Vasútállomás;Balatonmariafurdo Vasutallomas;46.7042;17.3745
715838;Sátoraljaújhely;Sátoraljaújhely Vasútállomás;Satoraljaujhely Vasutallomas;48.3857;21.6577
3046202;Porrogszentkirály;Porrogszentkirály Vasúti Megállóhely;Porrogszentkiraly Vasuti Megallohely;46.25;17.0167
3044113;Tarjánpuszta;Tarjánpuszta Vasútállomás;Tarjanpuszta Vasutallomas;47.5;17.7833
722189;Bodrogkeresztúr;Bodrogkeresztúr Vasútállomás;Bodrogkeresztur Vasutallomas;48.1667;21.3667
3051508;Heresznye;Heresznye Vasúti Megállóhely;Heresznye Vasuti Megallohely;46.0667;17.3
3051303;Hosszúberek-Péteri;Hosszúberek-Péteri Vasúti Megállóhely;Hosszuberek-Peteri Vasuti Megallohely;47.3721;19.3902
3046086;Pusztaszabolcs;Pusztaszabolcs Vasútállomás;Pusztaszabolcs Vasutallomas;47.1333;18.7667
3051617;Hatvan;Hatvan Vasútállomás;Hatvan Vasutallomas;47.6667;19.6667
714738;Tiszalúc;Tiszalúc Vasútállomás;Tiszaluc Vasutallomas;48.0377;21.0726
3045967;Rákosliget;Rákosliget Vasúti Megállóhely;Rakosliget Vasuti Megallohely;47.4862;19.2576
3047247;Nyírlak;Nyírlak Vasúti Megállóhely;Nyirlak Vasuti Megallohely;47.0;17.25
3047618;Nagymaros;Nagymaros Vasútállomás;Nagymaros Vasutallomas;47.7833;18.95
716384;Piros;Piroska Vasúti Megállóhely;Piroska Vasuti Megallohely;47.15;20.1333
3054575;Bük;Bük Vasútállomás;Buk Vasutallomas;47.3833;16.75
717792;Mártély;Mártély Vasútállomás;Martely Vasutallomas;46.4833;20.2333
715674;Sóstó;Sóstó Vasúti Megállóhely;Sosto Vasuti Megallohely;48.0;21.7333
3048385;Máriaudvar;Máriaudvar Vasúti Megállóhely;Mariaudvar Vasuti Megallohely;47.75;19.1667
3054755;Borsi;Borsihalom Vasúti Megállóhely;Borsihalom Vasuti Megallohely;46.7667;19.9167
3055688;Bágyogszovát;Bágyogszovát Vasúti Megállóhely;Bagyogszovat Vasuti Megallohely;47.6231;17.3213
3048255;Mecsekalja-Cserkút;Mecsekalja-Cserkút Vasútállomás;Mecsekalja-Cserkut Vasutallomas;46.0667;18.15
3044577;Szentléránt;Szentléránt Vasúti Megállóhely;Szentlerant Vasuti Megallohely;47.1167;16.75
3051490;Hetény;Hetényegyháza Vasútállomás;Hetenyegyhaza Vasutallomas;46.9167;19.6
716902;Nyírmihálydi;Nyírmihálydi Vasúti Megállóhely;Nyirmihalydi Vasuti Megallohely;47.7333;21.9833
3046046;Rábatamási;Rábatamási Vasútállomás;Rabatamasi Vasutallomas;47.5929;17.1616
3042635;Zalaegerszeg;Zalaegerszeg Vasútállomás;Zalaegerszeg Vasutallomas;46.85;16.85
3048081;Mihályháza;Mihályháza Vasúti Megállóhely;Mihalyhaza Vasuti Megallohely;47.3179;17.3298
3052047;Gyömöre-Tét;Gyömöre-Tét Vasúti Megállóhely;Gyomore-Tet Vasuti Megallohely;47.4833;17.5667
3045019;Szabadságtelep;Szabadságtelep Vasúti Megállóhely;Szabadsagtelep Vasuti Megallohely;47.55;19.2167
3051279;Hosszúhetény;Hosszúhetény Vasúti Megállóhely;Hosszuheteny Vasuti Megallohely;46.1354;18.3671
3044755;Szekszárd;Szekszárd Vasútállomás;Szekszard Vasutallomas;46.3333;18.7167
3044950;Szalatnak;Szalatnak Vasúti Megállóhely;Szalatnak Vasuti Megallohely;46.2833;18.2833
719097;Kettőshalom;Kettőshalom Vasúti Megállóhely;Kettoshalom Vasuti Megallohely;46.6833;20.0167
3048682;Lukácsháza;Lukácsháza Vasútállomás;Lukacshaza Vasutallomas;47.341;16.5797
3046714;Palota;Palotabozsok Vasútállomás;Palotabozsok Vasutallomas;46.1333;18.65
3053556;Dorog;Dorog Vasútállomás;Dorog Vasutallomas;47.7167;18.7333
3047599;Nagypall;Nagypall Vasúti Megállóhely;Nagypall Vasuti Megallohely;46.1479;18.4601
714338;Ürmös;Ürmöshát Vasúti Megállóhely;Urmoshat Vasuti Megallohely;47.2667;21.1
714719;Tiszasas;Tiszasas Vasútállomás;Tiszasas Vasutallomas;46.8167;20.0667
3054483;Cinkota;Cinkota Vasútállomás;Cinkota Vasutallomas;47.5201;19.2183
3047306;Nyárlőrinc;Nyárlőrinc Vasútállomás;Nyarlorinc Vasutallomas;46.8667;19.85
3045486;Sárvár;Sárvár Vasútállomás;Sarvar Vasutallomas;47.259;16.9293
3045228;Somogyjád;Somogyjád Vasútállomás;Somogyjad Vasutallomas;46.5;17.7
720057;Hejőkeresztúr;Hejőkeresztúr Vasútállomás;Hejokeresztur Vasutallomas;47.9667;20.8833
719518;Kakasszék;Kakasszék Vasúti Megállóhely;Kakasszek Vasuti Megallohely;46.5667;20.6
3047610;Nagynyárád;Nagynyárád Vasúti Megállóhely;Nagynyarad Vasuti Megallohely;45.9578;18.5871
720702;Fürjes;Fürjes Vasúti Megállóhely;Furjes Vasuti Megallohely;46.65;21.0
3053031;Fehérvárcsurgó;Fehérvárcsurgó Vasúti Megállóhely;Fehervarcsurgo Vasuti Megallohely;47.2833;18.2833
722054;Borsodszirák;Borsodszirák Vasúti Megállóhely;Borsodszirak Vasuti Megallohely;48.2667;20.7667
3047403;Nemeskocs;Nemeskocs Vasúti Megállóhely;Nemeskocs Vasuti Megallohely;47.2032;17.1889
718172;Látókép;Látókép Vasúti Megállóhely;Latokep Vasuti Megallohely;47.5667;21.5
715271;Szihalom;Szihalom Vasúti Megállóhely;Szihalom Vasuti Megallohely;47.7667;20.5
3051962;Győrvár;Győrvár Vasúti Megállóhely;Gyorvar Vasuti Megallohely;46.9833;16.85
714943;Tarnaszentmiklós;Tarnaszentmiklós Vasútállomás;Tarnaszentmiklos Vasutallomas;47.55;20.4
720725;Fülekipuszta;Fülekipuszta Vasúti Megállóhely;Fulekipuszta Vasuti Megallohely;47.2833;20.6833
3044296;Szőny-Déli;Szőny-Déli Vasúti Megállóhely;Szony-Deli Vasuti Megallohely;47.7358;18.1423
