geo_id;city;name;latitude;longitude
716868;Óbög;Óbög Vasúti Megállóhely;46.9833;20.1167
3044815;Szebény;Szebény Vasúti Megállóhely;46.15;18.6
716525;Pátroha;Pátroha Vasútállomás;48.1667;22.0
3050100;Kisbárapáti;Kisbárapáti Vasútállomás;46.6167;17.8667
3048106;Mezőfalva;Mezőfalva Vasútállomás;46.9041;18.8088
3047621;Nagymányok;Nagymányok Vasútállomás;46.2833;18.4667
717579;Miskolc-Tiszai;Miskolc-Tiszai Pályaudvar;48.1;20.8167
3045395;Selyp;Selyp Vasútállomás;47.7667;19.6833
720987;Fehérgyarmat;Fehérgyarmat Vasútállomás;47.9833;22.5333
3056433;Acsád;Acsád Vasútállomás;47.3073;16.7342
3043670;Türje;Türje Vasúti Megállóhely;46.9833;17.0833
719553;Kaba;Kaba Vasútállomás;47.3667;21.25
3045501;Sárpilis-Várdomb;Sárpilis-Várdomb Vasútállomás;46.244;18.72
3043017;Vecsés;Vecsés Vasútállomás;47.4167;19.25
715421;Szeghalom;Szeghalom Vasútállomás;47.0167;21.15
715426;Szeged-Rókus;Szeged-Rókus Vasútállomás;46.267;20.1263
720601;Garadna;Garadna Vasútállomás;48.1167;20.5667
3054443;Csák;Csákánydoroszló Vasútállomás;46.9667;16.5167
720291;Hajdúböszörmény;Hajdúböszörmény Vasútállomás;47.6667;21.5333
723043;Abádszalók;Abádszalók Vasútállomás;47.45;20.55
722707;Bajonta;Bajonta Vasútállomás;47.3167;21.7667
3050635;Kaposfő;Kaposfő Vasúti Megállóhely;46.3667;17.6667
718894;Kismacs;Kismacs Vasúti Megállóhely;47.55;21.55
718327;Kungyalu;Kungyalu Vasúti Megállóhely;46.9167;20.2667
3052095;Gyál;Gyál Vasútállomás;47.3833;19.2167
3049427;Körmend;Körmend Vasútállomás;47.0167;16.6
721830;Császárszállás;Császárszállás Vasútállomás;47.8833;21.7167
3043297;Uzsabánya;Uzsabánya Alsó Vasúti Megállóhely;46.9;17.35
3055208;Bélatelep;Bélatelep Vasúti Megállóhely;46.7333;17.55
3045061;Sumony;Sumony Vasútállomás;45.9667;17.9
3049455;Kopolya;Kopolya Vasúti Megállóhely;46.4;19.4833
3045211;Somogyvár;Somogyvár Vasútállomás;46.5827;17.6313
3046437;Pestszentimre;Pestszentimre Felső Vasúti Megállóhely;47.414;19.1734
3048316;Mátéházapuszta;Mátéházapuszta Vasútállomás;46.1501;19.063
3052365;Gátér;Gátér Vasútállomás;46.6833;19.9667
3045563;Sárbogárd;Sárbogárd Vasútállomás;46.8959;18.6119
716371;Pocsaj-Esztár;Pocsaj-Esztár Vasútállomás;47.3;21.7833
3052499;Fülöpszállás;Fülöpszállás Vasútállomás;46.8333;19.25
718980;Kisfástanya;Kisfástanya Vasútállomás;47.9833;21.4833
722185;Bodrogolaszi;Bodrogolaszi Vasúti Megállóhely;48.2833;21.5167
718475;Kötegyán;Kötegyán Vasútállomás;46.75;21.4833
3054636;Kelenföld;Kelenföld station;47.4651;19.0216
715919;Sándor;Sándoros Vasúti Megállóhely;47.3333;21.7167
3054629;Budatétény;Budatétény Vasúti Megállóhely;47.4052;19.0164
718524;Körösnagyharsány;Körösnagyharsány Vasúti Megállóhely;47.0167;21.6667
715866;Sárospatak;Sárospatak Vasútállomás;48.3333;21.5833
3042650;Zákány;Zákány Vasútállomás;46.25;16.95
719853;Hosszúhát;Hosszúhát Vasúti Megállóhely;47.2333;21.1
715943;Sajószentpéter;Sajószentpéter Vasútállomás;48.2167;20.7167
3049161;Kulcs;Kulcs Vasúti Megállóhely;47.05;18.9
3053072;Farmos;Farmos Vasúti Megállóhely;47.35;19.85
3055900;Apc-Zagyvaszántó;Apc-Zagyvaszántó Vasútállomás;47.7917;19.6676
3055980;Andráshida;Andráshida Vasútállomás;46.8667;16.8
3050085;Kisbér;Kisbér Vasútállomás;47.5;18.0167
3054637;Budapest-Józsefváros;Budapest-Józsefváros Vasútállomás;47.4908;19.0911
3055541;Balatonrendes;Balatonrendes Vasúti Megállóhely;46.8333;17.5833
3049226;Középrigóc;Középrigóc Vasútállomás;45.971;17.5278
718106;Levelek-Magy;Levelek-Magy Vasúti Megállóhely;47.95;21.9833
720760;Fony;Fony Vasúti Megállóhely;48.4;21.2333
3046243;Polgárdi-Tekerespuszta;Polgárdi-Tekerespuszta Vasúti Megállóhely;47.0333;18.3167
3049710;Kistelek;Kistelek Vasútállomás;46.4667;19.9667
3054812;Bonnya;Bonnya Vasútállomás;46.6106;17.9102
717129;Nagyszénás;Nagyszénás Vasútállomás;46.6833;20.6667
3049820;Kisnémedi;Kisnémedi Vasúti Megállóhely;47.7167;19.2667
3053150;Eternitgyár;Eternitgyár Vasútállomás;47.7667;18.5333
3044838;Szár;Szár Vasúti Megállóhely;47.4777;18.5348
3046383;Petőfiszállás;Petőfiszállás Vasútállomás;46.6167;19.8667
720937;Feketenagytanya;Feketenagytanya Vasúti Megállóhely;47.15;21.6667
3056444;Abda;Abda Vasútállomás;47.7;17.55
721932;Center;Center Vasútállomás;48.25;20.35
3046677;Pápa;Pápa Vasútállomás;47.3333;17.45
3046982;Öreglak;Öreglak Vasútállomás;46.6167;17.6333
3056106;Alsónemesapáti;Alsónemesapáti Vasúti Megállóhely;46.85;16.9333
3051880;Hajmáskér-Újtelep;Hajmáskér-Újtelep Vasúti Megállóhely;47.1479;18.0397
717321;Nagyhát;Nagyhát Vasútállomás;47.5833;21.4333
3052155;Gór;Gór Vasúti Megállóhely;47.3384;16.7734
8410967;Rábapatona;Rábapatona Vasúti Megállóhely;47.649;17.4628
722287;Bicere;Bicere Vasútállomás;46.65;21.1667
718527;Körösladány;Körösladány Vasútállomás;46.9667;21.0833
717668;Mezőberény;Mezőberény Vasútállomás;46.8167;21.0167
723011;Ágerdőmajor;Ágerdőmajor Vasútállomás;47.7833;22.4333
718612;Kondoros;Kondoros Vasútállomás;46.7667;20.7833
3050566;Kárász-Köblény;Kárász-Köblény Vasútállomás;46.2773;18.3123
719993;Hidasnémeti;Hidasnémeti Vasútállomás;48.5167;21.2333
716289;Pusztadomaháza;Pusztadomaháza Vasúti Megállóhely;47.5833;20.7333
3055549;Balatonlelle;Balatonlelle Vasúti Megállóhely;46.7833;17.7
3044210;Táborfalva;Táborfalva Vasútállomás;47.1;19.4833
3046518;Pécs-Gyárváros;Pécs-Gyárváros Vasúti Megállóhely;46.0833;18.2833
3045835;Rév;Révfülöp Vasútállomás;46.8333;17.6333
721229;Eger-Felnémet;Eger-Felnémet Vasútállomás;47.95;20.3833
718594;Kónya;Kónya Vasúti Megállóhely;47.6;21.25
719673;Jánosszállás;Jánosszállás Vasúti Megállóhely;46.3167;20.0667
3055626;Bakonysárkány;Bakonysárkány Vasútállomás;47.45;18.1
720684;Füzesbokor;Füzesbokor Vasúti Megállóhely;47.9833;21.6667
717631;Mezőzombor;Mezőzombor Vasútállomás;48.1667;21.25
3047532;Nagyszentjános;Nagyszentjános Vasútállomás;47.7167;17.8833
715122;Szolnok;Szolnok Vasútállomás;47.1833;20.1667
3055567;Balatonföldvár;Balatonföldvár Vasúti Megállóhely;46.85;17.8833
3055573;Balatonfenyves;Balatonfenyves Vasútállomás;46.7167;17.5
722878;Ambrózfalva;Ambrózfalva Vasúti Megállóhely;46.35;20.7333
720856;Felsőzsolca;Felsőzsolca Vasútállomás;48.0833;20.8667
3049547;Kölesd-Alsótengelic;Kölesd-Alsótengelic Vasútállomás;46.5378;18.6723
3053681;Diósjenő;Diósjenő Vasútállomás;47.9333;19.05
3055579;Balatonederics;Balatonederics Vasútállomás;46.7994;17.3866
3053512;Drégelyvár;Drégelyvár Vasúti Megállóhely;48.0026;19.0777
720725;Fülekipuszta;Fülekipuszta Vasúti Megállóhely;47.2833;20.6833
3042543;Zichyújfalu;Zichyújfalu Vasútállomás;47.1333;18.6667
3056411;Adony;Adony Vasútállomás;47.1;18.85
3048698;Ludányhalászi;Ludányhalászi Vasúti Megállóhely;48.1321;19.5285
720325;Gyula-Jánoszug;Gyula-Jánoszug Vasúti Megállóhely;46.65;21.1833
3045529;Sárkeresztúr;Sárkeresztúr Vasúti Megállóhely;47.0167;18.55
3047343;Nógrádszakál;Nógrádszakál Vasútállomás;48.1833;19.5333
717637;Mezőtárkány;Mezőtárkány Vasútállomás;47.7333;20.4833
3042967;Veresegyház;Veresegyház Vasútállomás;47.65;19.2833
716942;Nyírbogdány;Nyírbogdány Vasútállomás;48.0833;21.8667
718935;Kishomok;Kishomok Vasúti Megállóhely;46.4;20.2833
3049877;Kiskunlacháza;Kiskunlacháza Vasútállomás;47.1833;19.05
3044908;Szany-Rábaszentandrás;Szany-Rábaszentandrás Vasútállomás;47.4607;17.3152
3045934;Ravazd;Ravazd Vasúti Megállóhely;47.5296;17.7588
3049707;Kisterenye-Bányatelep;Kisterenye-Bányatelep Vasúti Megállóhely;48.0333;19.8333
8410977;Csap;Csapod Vasútállomás;47.5109;16.9157
3050428;Kecskemét-Parasztfőiskola;Kecskemét-Parasztfőiskola Vasúti Megállóhely;46.9;19.7167
715528;Szalonna;Szalonna Vasútállomás;48.45;20.7167
3045963;Rákospalota-Újpest;Rákospalota-Újpest Vasútállomás;47.5658;19.112
715881;Sarkad;Sarkad Vasútállomás;46.7333;21.3833
720677;Füzesgyarmat;Füzesgyarmat Vasútállomás;47.1;21.2167
3042843;Vinye;Vinye Vasúti Megállóhely;47.3667;17.8167
714773;Tiszaföldvár;Tiszaföldvár Vasútállomás;46.9833;20.2833
3052225;Göd;Göd Vasútállomás;47.7;19.15
721425;Derecske;Derecske Vasútállomás;47.3667;21.5833
3050966;Jánoshalma;Jánoshalma Vasútállomás;46.3;19.3333
722871;Andornaktálya;Andornaktálya Vasúti Megállóhely;47.85;20.4
3053227;Érd;Érd Vasútállomás;47.3703;18.901
718908;Kisköre;Kisköre Vasútállomás;47.5;20.4833
3050661;Kapitányság;Kapitányság Vasúti Megállóhely;46.4333;19.9833
3044308;Szombathely-Szőlős;Szombathely-Szőlős Vasúti Megállóhely;47.2064;16.6419
3052232;Gödöllő;Gödöllő Vasútállomás;47.5833;19.3667
714338;Ürmös;Ürmöshát Vasúti Megállóhely;47.2667;21.1
3054634;Budapest-Nyugati;Budapest-Nyugati Pályaudvar;47.5105;19.0571
3046851;Ostffyasszonyfa;Ostffyasszonyfa Vasútállomás;47.2839;17.0243
3054921;Bodolyabér;Bodolyabér Vasúti Megállóhely;46.2;18.1333
720278;Hajdúszentgyörgy;Hajdúszentgyörgy Vasútállomás;47.6167;21.5833
3043098;Városlőd;Városlőd Vasúti Megállóhely;47.1444;17.6531
721221;Egervár;Egervár Vasúti Megállóhely;47.9;20.3833
3046128;Püspökmolnári;Püspökmolnári Vasútállomás;47.0852;16.7685
3053107;Farád;Farád Vasúti Megállóhely;47.5961;17.1962
715885;Sarkadkeresztúr;Sarkadkeresztúr Vasútállomás;46.8;21.4167
3046692;Pannonhalma;Pannonhalma Vasútállomás;47.55;17.75
720636;Gajdospuszta;Gajdospuszta Vasúti Megállóhely;46.35;20.4667
719266;Kelenc;Kelenc Vasúti Megállóhely;47.3333;21.2
3051131;Inárcs-Kakucs;Inárcs-Kakucs Vasútállomás;47.25;19.3167
721308;Dombrád;Dombrád Vasútállomás;48.2333;21.9167
3051523;Herceghalom;Herceghalom Vasútállomás;47.494;18.7486
3052007;Győrasszonyfa;Győrasszonyfa Vasútállomás;47.5;17.8
3048185;Mende;Mende Vasútállomás;47.4333;19.45
3047688;Nagyigmánd-Bábolna;Nagyigmánd-Bábolna Vasútállomás;47.6667;18.05
3043751;Tósokberénd;Tósokberénd Vasúti Megállóhely;47.0918;17.5333
3046464;Pereszteg;Pereszteg Vasúti Megállóhely;47.5881;16.7209
719641;Jászkisér;Jászkisér Vasútállomás;47.4667;20.2
717241;Nagylak;Nagylak Vasútállomás;46.1667;20.7
3046198;Portelek;Portelek Vasúti Megállóhely;47.4154;19.9608
3042857;Vilonya-Királyszentistván;Vilonya-Királyszentistván Vasúti Megállóhely;47.1167;18.0667
6691854;Szemeretelep;Szemeretelep Vasúti Megállóhely;47.4434;19.2131
719402;Karcag-Ipartelep;Karcag-Ipartelep Vasúti Megállóhely;47.35;20.8833
720441;Gorzsa;Gorzsa Vasúti Megállóhely;46.3667;20.4333
718536;Kórógy;Kórógyszentgyörgy Vasúti Megállóhely;46.5667;20.2167
3045964;Rákospalota-Kertváros;Rákospalota-Kertváros Vasúti Megállóhely;47.5833;19.1333
715417;Szegi;Szegi Vasúti Megállóhely;48.2167;21.4
713930;Zagyvarékas;Zagyvarékas Vasúti Megállóhely;47.25;20.1
3056095;Alsóörs;Alsóörs Vasútállomás;46.9833;17.9833
3048592;Magyarkút-Verőce;Magyarkút-Verőcemaros Vasúti Megállóhely;47.8333;19.05
719417;Karácsond;Karácsond Vasútállomás;47.7168;20.0447
3053767;Decs;Decs Vasútállomás;46.2833;18.7667
3056425;Ács;Ács Vasútállomás;47.7167;18.0
3052691;Fenékpuszta;Fenékpuszta Vasúti Megállóhely;46.7167;17.25
715198;Szirmabesenyő;Szirmabesenyő Vasúti Megállóhely;48.1483;20.7827
3052810;Felsőméntelek;Felsőméntelek Vasúti Megállóhely;46.9862;19.5588
3055051;Bezenye;Bezenye Vasúti Megállóhely;47.9667;17.2167
716843;Ököritó;Ököritófülpös Vasúti Megállóhely;47.9167;22.5
3044688;Szentdénes;Szentdénes Vasúti Megállóhely;46.0333;17.9333
3055585;Balatonberény;Balatonberény Vasúti Megállóhely;46.7167;17.3167
3054635;Budapest-Keleti;Budapest-Keleti Pályaudvar;47.5005;19.0831
717986;Macs;Macs Vasútállomás;47.5667;21.4833
714147;Végegyháza;Végegyháza Vasúti Megállóhely;46.3833;20.8833
3053024;Feked;Feked Vasúti Megállóhely;46.1502;18.5561
3052032;Gyöngyöshermán;Gyöngyöshermán Vasúti Megállóhely;47.2028;16.6571
714741;Tiszalöki Vízművek;Tiszalöki Vízművek Vasúti Megállóhely;48.0167;21.3
3047677;Nagykanizsa;Nagykanizsa Vasútállomás;46.45;16.9833
3048251;Mecsekjánosi;Mecsekjánosi Vasútállomás;46.2167;18.25
3046714;Palota;Palotabozsok Vasútállomás;46.1333;18.65
3045293;Solymár;Solymár Vasútállomás;47.596;18.9495
721465;Debrecen-Tégláskert;Debrecen-Tégláskert Vasúti Megállóhely;47.5027;21.6084
714420;Újszász;Újszász Vasútállomás;47.2833;20.0667
714735;Tiszanagyfalu;Tiszanagyfalu Vasúti Megállóhely;48.1;21.5167
3054003;Csóka;Csókakő Vasúti Megállóhely;47.3333;18.2333
716261;Pusztaszakállas;Pusztaszakállas Vasúti Megállóhely;47.1833;20.5333
721426;Derecske-Vásártér;Derecske-Vásártér Vasúti Megállóhely;47.35;21.5833
3055195;Beled;Beled Vasútállomás;47.4666;17.0846
718889;Kismargita;Kismargita Vasúti Megállóhely;47.7167;21.1167
3053400;Ecser;Ecser Vasúti Megállóhely;47.4412;19.3141
3055193;Beleg;Beleg Vasútállomás;46.3167;17.4167
3056406;Adorján;Adorjánpuszta Vasúti Megállóhely;46.6333;18.35
3051182;Iklódbördőce;Iklódbördőce Vasúti Megállóhely;46.6;16.6167
715216;Szilvásvárad-Szalajkavölgy;Szilvásvárad-Szalajkavölgy Vasúti Megállóhely;48.1;20.3833
3050202;Kéthely;Kéthely Vasútállomás;46.65;17.4167
717719;Méhkerék;Méhkerék Vasúti Megállóhely;46.7833;21.4667
719961;Hódmezővásárhely;Hódmezővásárhely Vasútállomás;46.4167;20.35
3055987;Andocs;Andocs Vasúti Megállóhely;46.6465;17.8928
721207;Egyek;Egyek Vasútállomás;47.6333;20.8833
3046196;Porva-Csesznek;Porva-Csesznek Vasútállomás;47.3309;17.8404
718590;Kopáncs;Kopáncs Vasútállomás;46.3833;20.25
718009;Ludas;Ludas Vasútállomás;47.7167;20.1
3046507;Pécsudvard;Pécsudvard Vasútállomás;46.0167;18.2833
719889;Hortobágyi Halastó;Hortobágyi Halastó Vasútállomás;47.6;21.0833
3044189;Tajó;Tajó Vasútállomás;46.4667;19.6833
722618;Balsa;Balsa Vasútállomás;48.1667;21.5667
717823;Máriapócs;Máriapócs Vasútállomás;47.85;22.0167
717654;Mezőkovácsháza;Mezőkovácsháza Vasútállomás;46.4;20.9167
3056013;Alsóúrrét;Alsóúrrét Vasúti Megállóhely;46.9;19.7833
3053473;Dunakeszi;Dunakeszi Vasútállomás;47.6333;19.1333
716697;Őszeszék;Őszeszék Vasúti Megállóhely;46.3833;20.0167
3047177;Okorág-Kárászpuszta;Okorág-Kárászpuszta Vasúti Megállóhely;45.9333;17.8667
3048593;Magyarkút;Magyarkút Vasúti Megállóhely;47.8481;19.0473
714850;Tenyőszállás;Tenyőszállás Vasúti Megállóhely;47.15;20.35
3044423;Szil-Sopronnémeti;Szil-Sopronnémeti Vasútállomás;47.533;17.209
720001;Heves;Heves Vasútállomás;47.6167;20.3167
3043983;Tengelic;Tengelic Vasúti Megállóhely;46.5167;18.7167
3046341;Pilis;Pilis Vasútállomás;47.2667;19.55
720254;Haláp;Haláp Vasúti Megállóhely;47.5167;21.8167
3044226;Szurdokpüspöki;Szurdokpüspöki Vasútállomás;47.85;19.6833
718264;Kútvölgy;Kútvölgyi Gyógyintézet Vasútállomás;46.4667;20.4667
3052509;Füle;Füle Vasúti Megállóhely;47.05;18.25
717698;Méra;Méra Vasúti Megállóhely;48.3667;21.1333
3048601;Magyarhertelend;Magyarhertelend Vasúti Megállóhely;46.2;18.1667
3050626;Kaposmérő;Kaposmérő Vasútállomás;46.3667;17.7
3050624;Kapospula;Kapospula Vasúti Megállóhely;46.3833;18.1
722497;Bashalom;Bashalom Vasúti Megállóhely;48.0333;21.5167
3052905;Felsőgalla;Felsőgalla Vasútállomás;47.55;18.45
717243;Nagylaki Kendergyár;Nagylaki Kendergyár Vasúti Megállóhely;46.1833;20.7167
720504;Golop;Golop Vasúti Megállóhely;48.25;21.2
723027;Abony;Abony Vasútállomás;47.1667;20.0167
3049313;Kővágóér;Kővágóér Vasúti Megállóhely;46.65;19.8167
3051190;Ihász;Ihász Vasútállomás;47.3812;17.4011
3052421;Galgaguta;Galgaguta Vasútállomás;47.85;19.3833
3050602;Káptalanfüred;Káptalanfüred Vasúti Megállóhely;47.0119;18.0057
3044882;Szárföld;Szárföld Vasútállomás;47.5892;17.1224
720052;Hékéd;Hékéd Vasúti Megállóhely;46.6833;20.2667
719638;Jászladány;Jászladány Vasútállomás;47.3667;20.15
722435;Békéscsaba;Békéscsaba Vasútállomás;46.6833;21.0833
3042986;Véménd;Véménd Vasútállomás;46.15;18.6167
717525;Mónosbél;Mónosbél Vasútállomás;48.05;20.3333
714592;Tornyos;Tornyospálca Vasútállomás;48.2667;22.2
3050617;Kaposújlak;Kaposújlak Vasúti Megállóhely;46.3671;17.7243
719690;Jám;Jámborhalom Vasúti Megállóhely;46.75;20.3
3056069;Alsórönök;Alsórönök Vasúti Megállóhely;46.9667;16.3833
720845;Fényeslitke;Fényeslitke Vasútállomás;48.2667;22.1167
720269;Hajdúvölgy;Hajdúvölgy Vasúti Megállóhely;46.65;20.6833
714264;Vámospércs;Vámospércs Vasútállomás;47.5167;21.9
718519;Körösszakál;Körösszakál Vasútállomás;47.0;21.6167
3050057;Kiscséripuszta;Kiscséripuszta Vasútállomás;47.0468;18.3539
3045969;Rákoskert;Rákoskert Vasúti Megállóhely;47.4569;19.2958
721557;Csorvás;Csorvás Vasútállomás;46.6167;20.8333
716384;Piros;Piroska Vasúti Megállóhely;47.15;20.1333
3047799;Nagybátony;Nagybátony Vasútállomás;47.9837;19.8211
3045299;Soltszentimre;Soltszentimre Vasúti Megállóhely;46.7667;19.2667
722600;Bánhidymajor;Bánhidymajor Vasúti Megállóhely;46.4667;21.2167
3042695;Vörs;Vörs Vasúti Megállóhely;46.6667;17.2667
718734;Kisvarsány;Kisvarsány Vasúti Megállóhely;48.15;22.3
722120;Boldogkőváralja;Boldogkőváralja Vasúti Megállóhely;48.35;21.2833
3055622;Bakonyszentlászló;Bakonyszentlászló Vasútállomás;47.4;17.8167
3042568;Zánka-Köveskál;Zánka-Köveskál Vasútállomás;46.8725;17.6874
722674;Balástya;Balástya Vasútállomás;46.4167;20.0
3046791;Pácsony;Pácsony Vasútállomás;47.0167;16.8333
3045383;Seregélyes-Szőlőhegy;Seregélyes-Szőlőhegy Vasúti Megállóhely;47.1167;18.5833
3042510;Zrínyitelep;Zrínyitelep Vasúti Megállóhely;46.2833;17.1333
721362;Dobaipuszta;Dobaipuszta Vasúti Megállóhely;46.9667;21.3
3052803;Felsőmocsolád;Felsőmocsolád Vasútállomás;46.5596;17.8219
3042996;Velencefürdő;Velencefürdő Vasúti Megállóhely;47.2134;18.64
3055843;Árpádszállás;Árpádszállás Vasúti Megállóhely;46.8667;19.9833
3043099;Városlőd-Kislőd;Városlőd-Kislőd Vasútállomás;47.1333;17.6301
721623;Csobád;Csobád Vasúti Megállóhely;48.2833;21.0333
716454;Perkupa;Perkupa Vasúti Megállóhely;48.4667;20.7
3044074;Tata;Tata Vasútállomás;47.6667;18.3333
716201;Rákhát;Rákhát Vasúti Megállóhely;47.5167;20.45
3048248;Mecsekpölöske;Mecsekpölöske Vasúti Megállóhely;46.2167;18.2167
3046053;Rábapordány;Rábapordány Vasútállomás;47.5572;17.3152
718086;Ligettanya;Ligettanya Vasútállomás;47.95;22.0833
3055263;Becehegy;Becehegy Vasúti Megállóhely;46.7833;17.3833
3051179;Ikrény;Ikrény Vasútállomás;47.6577;17.5231
715352;Szendrőlád;Szendrőlád Vasútállomás;48.3333;20.7333
3048606;Harka;Harka Vasútállomás;47.6418;16.6189
3048325;Martonvásár;Martonvásár Vasútállomás;47.3167;18.7833
722850;Apagy;Apagy Vasútállomás;47.95;21.9333
718310;Kunszentmárton;Kunszentmárton Vasútállomás;46.85;20.3
714781;Tiszadada;Tiszadada Vasútállomás;48.0167;21.25
3043110;Városföld;Városföld Vasútállomás;46.8167;19.7533
3049460;Kópháza;Kópháza Vasúti Megállóhely;47.6328;16.637
715312;Szepeshalom;Szepeshalom Vasúti Megállóhely;47.4781;21.599
722963;Algyő;Algyő Vasútállomás;46.35;20.2
720642;Gádoros;Gádoros Vasútállomás;46.65;20.6167
3054704;Botykapeterd;Botykapeterd Vasúti Megállóhely;46.05;17.8667
3050926;Jánossomorja;Jánossomorja Vasútállomás;47.7891;17.1375
3050902;Jászfényszaru;Jászfényszaru Vasútállomás;47.5932;19.7532
3053854;Csurgó;Csurgó Vasútállomás;46.2667;17.1
719684;Jánkmajtis;Jánkmajtis Vasútállomás;47.8667;22.65
714713;Tiszaszentimre;Tiszaszentimre Vasútállomás;47.5;20.7333
3045331;Siófok;Siófok Vasútállomás;46.9;18.05
3053834;Dabas;Dabas Vasútállomás;47.1924;19.3317
717852;Mándok;Mándok Vasútállomás;48.3167;22.2
3046246;Polgárdi-Ipartelepek;Polgárdi-Ipartelepek Vasútállomás;47.0833;18.3167
3045214;Somogyudvarhely;Somogyudvarhely Vasútállomás;46.1667;17.1833
3053622;Döbrököz;Döbrököz Vasútállomás;46.4167;18.2667
715370;Szellőhát;Szellőhát Vasúti Megállóhely;47.4333;20.2
717581;Miskolc-Gömöri;Miskolc-Gömöri Pályaudvar;48.1126;20.7985
8410969;Hegykő;Hegykő Vasúti Megállóhely;47.6007;16.8167
3055678;Baja;Baja Vasútállomás;46.1833;18.9667
719008;Kiscsákó;Kiscsákó Vasúti Megállóhely;46.7167;20.7167
3054971;Bize;Bize Vasúti Megállóhely;46.5333;17.4333
3047280;Nyergesújfalu;Nyergesújfalu Vasútállomás;47.7667;18.5667
8426437;Emmamajor;Emmamajor Vasúti Megállóhely;47.5417;17.3166
3054843;Boldog;Boldog Vasúti Megállóhely;47.6167;19.7167
722681;Baktalórántháza;Baktalórántháza Vasútállomás;48.0;22.0833
714770;Tiszafüred;Tiszafüred Vasútállomás;47.6333;20.75
3047964;Mohács;Mohács Vasútállomás;46.0;18.6833
716792;Ópályi;Ópályi Vasúti Megállóhely;48.0;22.3167
3045015;Szabadszállás;Szabadszállás Vasútállomás;46.8833;19.2167
3048283;Mátraszőlős-Hasznos;Mátraszőlős-Hasznos Vasúti Megállóhely;47.9393;19.7075
720686;Füzesabony;Füzesabony Vasútállomás;47.75;20.4167
3053830;Dabronc;Dabronc Vasúti Megállóhely;47.0257;17.1672
719259;Kemecse;Kemecse Vasútállomás;48.0667;21.15
3055591;Balatonaliga;Balatonaliga Vasútállomás;46.9833;18.1667
3048175;Ménfőcsanak;Ménfőcsanak Vasútállomás;47.6167;17.6167
3055727;Badacsonytördemic-Szigliget;Badacsonytördemic-Szigliget Vasútállomás;46.8167;17.4833
3056206;Alsógyenes;Alsógyenes Vasúti Megállóhely;46.7667;17.2833
3054090;Csikóstőttős;Csikóstőttős Vasúti Megállóhely;46.3333;18.15
722853;Apafa;Apafa Vasútállomás;47.5833;21.6667
719249;Kende;Kenderes Vasútállomás;47.2667;20.6833
718468;Kótpuszta;Kótpuszta Vasútállomás;46.9667;21.3667
3044797;Szedres;Szedres Vasútállomás;46.4787;18.717
717160;Nagyrét;Nagyrét Vasúti Megállóhely;46.7833;20.7
3042535;Zirc;Zirc Vasútállomás;47.2667;17.9
3046813;Ötvös;Ötvös Vasútállomás;47.0153;17.1359
11205690;Ferihegy;Ferihegy;47.4378;19.224
720367;Gyökérkút;Gyökérkút Vasúti Megállóhely;47.6167;21.0167
717407;Nagycsere;Nagycsere Vasútállomás;47.5167;21.7667
3045329;Siójut;Siójut Vasútállomás;46.8833;18.1333
3051660;Hárshegy;Hárshegy Vasútállomás;47.5356;18.9627
3047224;Nyúl;Nyúl Vasútállomás;47.5833;17.6833
3048827;Lesencetomaj;Lesencetomaj Vasútállomás;46.8755;17.3808
714597;Torna;Tornanádaska Vasútállomás;48.5667;20.8
3055758;Bácsalmás;Bácsalmás Vasútállomás;46.1167;19.35
716299;Püspökladány;Püspökladány Vasútállomás;47.3167;21.1167
720313;Gyüre;Gyüre Vasútállomás;48.1667;22.2833
715940;Sajószöged;Sajószöged Vasúti Megállóhely;47.95;20.9833
3043842;Tolnanémedi;Tolnanémedi Vasútállomás;46.7167;18.4667
3045491;Sárszentmiklós;Sárszentmiklós Vasútállomás;46.85;18.6
721254;Ebes;Ebes Vasútállomás;47.4667;21.5
720271;Hajdúvid;Hajdúvid Vasúti Megállóhely;47.75;21.5167
719998;Hevesvezekény;Hevesvezekény Vasúti Megállóhely;47.5667;20.3667
719094;Kétútköz;Kétútköz Vasúti Megállóhely;47.7;20.5667
715326;Szentkozma;Szentkozma Vasúti Megállóhely;47.2333;21.4667
3055756;Bácsbokod-Bácsborsód;Bácsbokod-Bácsborsód Vasútállomás;46.1167;19.2167
3055534;Balatonszárszó;Balatonszárszó Vasútállomás;46.8333;17.8333
3054661;Budafok;Budafok-Belváros Vasúti Megállóhely;47.4262;19.0412
714819;Tiborszállás;Tiborszállás Vasútállomás;47.8167;22.4167
3047605;Nagyoroszi;Nagyoroszi Vasútállomás;47.9921;19.1024
3056432;Acsa-Erdőkürt;Acsa-Erdőkürt Vasútállomás;47.7983;19.3897
720356;Gyopárosfürdő;Gyopárosfürdő Vasúti Megállóhely;46.5667;20.65
3046206;Porpác;Porpác Vasútállomás;47.2389;16.8328
3045043;Süttő;Süttő Vasútállomás;47.7611;18.4553
714361;Újvár;Újváros Vasúti Megállóhely;46.65;20.5333
3052428;Galambos;Galambos Vasútállomás;46.6333;19.8
3051475;Hévízgyörk;Hévízgyörk Vasúti Megállóhely;47.6333;19.5167
3047668;Nagykáta;Nagykáta Vasútállomás;47.4;19.75
714454;Újkenéz;Újkenéz Vasúti Megállóhely;48.25;22.2167
3051185;Iklad-Domony;Iklad-Domony Vasútállomás;47.6667;19.45
719502;Kál-Kápolna;Kál-Kápolna Vasútállomás;47.7333;20.2667
716203;Rakamaz;Rakamaz Vasútállomás;48.1167;21.4833
3046335;Pincehely;Pincehely Vasútállomás;46.6833;18.45
720777;Földeák;Földeák Vasútállomás;46.3167;20.4833
3045267;Somlóvásárhely;Somlóvásárhely Vasúti Megállóhely;47.1244;17.3688
3046242;Polgárdi;Polgárdi Vasútállomás;47.0667;18.2833
714418;Újszeged;Újszeged Vasútállomás;46.2423;20.1594
716338;Poroszló;Poroszló Vasútállomás;47.6667;20.65
3050403;Kelebia;Kelebia Vasútállomás;46.2;19.6
3044099;Tárnok;Tárnok Vasútállomás;47.3667;18.8833
3053981;Csomád;Csomád Vasútállomás;47.6356;19.2218
3052012;Gyón;Gyón Vasúti Megállóhely;47.1803;19.3528
3043319;Úrihegy;Úrihegy Vasúti Megállóhely;46.9;19.6333
721998;Büdöskútpuszta;Büdöskútpuszta Vasúti Megállóhely;48.3833;20.7333
716246;Putnok;Putnok Vasútállomás;48.2833;20.45
716293;Pusztabánréve;Pusztabánréve Vasútállomás;46.9333;20.5667
3051720;Harkakötöny;Harkakötöny Vasútállomás;46.45;19.6
3055031;Bicsérd;Bicsérd Vasútállomás;46.0333;18.0667
8410866;Ágfalva;Ágfalva Vasútállomás;47.6906;16.5208
721644;Csincse;Csincse Vasúti Megállóhely;47.9;20.7667
3053966;Csömör;Csömör Vasútállomás;47.55;19.2333
716801;Ondód;Ondód Vasúti Megállóhely;47.4833;21.55
716950;Nyíradony;Nyíradony Vasútállomás;47.6982;21.8994
3042794;Vitnyéd-Csermajor;Vitnyéd-Csermajor Vasúti Megállóhely;47.582;16.9872
3054286;Csengele;Csengele Vasútállomás;46.5333;19.9167
3051833;Halászaranyos;Halászaranyos Vasúti Megállóhely;47.7167;19.95
720225;Halmaj;Halmaj Vasútállomás;48.25;21.0
3050366;Kemenesmihályfa;Kemenesmihályfa Vasúti Megállóhely;47.279;17.1089
720289;Hajdúdorog;Hajdúdorog Vasútállomás;47.8;21.5
717057;Nagyvisnyó-Dédes;Nagyvisnyó-Dédes Vasúti Megállóhely;48.15;20.4333
3043029;Vaszar;Vaszar Vasútállomás;47.4;17.5
720744;Forró-Encs;Forró-Encs Vasútállomás;48.3333;21.1167
3056324;Albertirsa;Albertirsa Vasútállomás;47.2333;19.6167
3051034;Iváncsa;Iváncsa Vasútállomás;47.1811;18.816
722507;Barta;Barta Vasúti Megállóhely;47.1833;20.4833
3048760;Litke;Litke Vasútállomás;48.2167;19.6
3056210;Alsógalla;Alsógalla Vasútállomás;47.5667;18.4167
3052036;Gyöngyösfalu;Gyöngyösfalu Vasúti Megállóhely;47.3164;16.5886
3047220;Óalmás;Óalmás Vasútállomás;46.1167;19.3
3044111;Tárkány-Csép;Tárkány-Csép Vasúti Megállóhely;47.5952;18.0414
3053344;Egyházasrádóc;Egyházasrádóc Vasútállomás;47.0833;16.6167
716851;Okány;Okány Vasútállomás;46.9;21.3333
715953;Sajónémeti;Sajónémeti Vasúti Megállóhely;48.2667;20.3667
722394;Belsőkamaráspuszta;Belsőkamaráspuszta Vasúti Megállóhely;46.3167;20.9167
713840;Zsujta;Zsujta Vasúti Megállóhely;48.5;21.2667
3054852;Bölcske;Bölcske Vasútállomás;46.7267;18.93
715461;Szarvaskő;Szarvaskő Vasútállomás;48.0167;20.3333
718596;Kónyaszék;Kónyaszék Vasúti Megállóhely;46.6833;20.05
3045958;Rákos;Rákos Vasútállomás;47.4888;19.1751
3048833;Lepsény;Lepsény Vasútállomás;46.9833;18.25
3044180;Taksony;Taksony Vasútállomás;47.3167;19.0833
3047629;Nagylók;Nagylók Vasútállomás;46.9833;18.65
715215;Szilvásvárad;Szilvásvárad Vasútállomás;48.1167;20.3833
713922;Zajta;Zajta Vasútállomás;47.9;22.8
720456;Görögszállás;Görögszállás Vasútállomás;48.05;21.5667
3050621;Kaposszekcső;Kaposszekcső Vasúti Megállóhely;46.3333;18.15
3047793;Nagyberki;Nagyberki Vasúti Megállóhely;46.3667;18.0167
3045961;Rákosrendező;Rákosrendező Pályaudvar;47.5259;19.0902
3048610;Magyarbóly;Magyarbóly Vasútállomás;45.8336;18.4925
3051106;Ipolytarnóc;Ipolytarnóc Vasútállomás;48.2333;19.6333
3050900;Jászszentlászló;Jászszentlászló Vasútállomás;46.5667;19.7667
719309;Kazincbarcika;Kazincbarcika Vasútállomás;48.2667;20.6333
3046081;Pusztaszentistván;Pusztaszentistván Vasúti Megállóhely;47.45;19.4667
715967;Sajóecseg;Sajóecseg Vasútállomás;48.1833;20.7667
3046298;Pirtó;Pirtó Vasútállomás;46.5004;19.4486
3053320;Előszállás;Előszállás Vasútállomás;46.8309;18.8424
3044361;Szőkéd;Szőkéd Vasúti Megállóhely;45.9672;18.2906
3047416;Nemesgulács-Kisapáti;Nemesgulács-Kisapáti Vasúti Megállóhely;46.8333;17.4833
722423;Bélapátfalva;Bélapátfalva Vasútállomás;48.0667;20.3667
723038;Abaújkér;Abaújkér Vasúti Megállóhely;48.3;21.2
715902;Sáránd;Sáránd Vasútállomás;47.4;21.6167
3045658;Szépjuhászné;Szépjuhászné Vasútállomás;47.529;18.9549
718227;Lakitelek;Lakitelek Vasútállomás;46.8667;20.0
721403;Déva;Dévaványa Vasútállomás;47.0333;20.95
3051479;Hetvehely;Hetvehely Vasúti Megállóhely;46.1333;18.05
3048046;Miklóstelep;Miklóstelep Vasúti Megállóhely;46.9;19.65
717895;Makó;Makó Vasútállomás;46.2;20.4667
3047963;Moha-Rakodó;Moha-Rakodó Vasútállomás;47.2667;18.3
3044756;Szekszárd-Palánk;Szekszárd-Palánk Vasúti Megállóhely;46.3833;18.7333
715680;Sóstóhegy;Sóstóhegy Vasútállomás;48.0167;21.75
3044377;Szob;Szob Vasútállomás;47.8167;18.8667
718905;Kiskundorozsma;Kiskundorozsma Vasútállomás;46.2718;20.0911
3053474;Dunakeszi-Gyártelep;Dunakeszi-Gyártelep Vasúti Megállóhely;47.65;19.1333
3053977;Csoma-Szabadi;Csoma-Szabadi Vasútállomás;46.3667;18.0333
718805;Kisszénás;Kisszénás Vasútállomás;46.75;20.7333
3054447;Csajág;Csajág Vasútállomás;47.0352;18.1855
3043283;Váckisújfalu;Váckisújfalu Vasúti Megállóhely;47.7;19.35
714972;Tarcal;Tarcal Vasútállomás;48.1333;21.3333
3046258;Pókaszepetk;Pókaszepetk Vasútállomás;46.9167;16.9667
3055409;Baracska;Baracska Vasúti Megállóhely;47.3;18.7667
3053419;Dúzs;Dúzs Vasúti Megállóhely;46.5;18.3833
3055731;Badacsonyörs;Badacsonyörs Vasúti Megállóhely;46.8;17.5333
716258;Pusztaszenttornya;Pusztaszenttornya Vasúti Megállóhely;46.6167;20.6833
3043032;Vasvár;Vasvár Vasútállomás;47.057;16.8004
722606;Bánhalma-Halastó;Bánhalma-Halastó Vasúti Megállóhely;47.3333;20.6667
714291;Vaja-Rohod;Vaja-Rohod Vasútállomás;48.0;22.15
3042745;Vonyarcvashegy;Vonyarcvashegy Vasútállomás;46.75;17.3167
717332;Nagyhalom;Nagyhalom Vasúti Megállóhely;47.5333;20.0667
717897;Makó-Újváros;Makó-Újváros Vasútállomás;46.2333;20.5
720283;Hajdúnánás-Vásártér;Hajdúnánás-Vásártér Vasúti Megállóhely;47.8333;21.4
3055508;Balffürdő;Balffürdő Vasúti Megállóhely;47.6442;16.6544
3047817;Nagyatád;Nagyatád Vasútállomás;46.2167;17.3667
720294;Hajdúbagos;Hajdúbagos Vasútállomás;47.403;21.6621
3055813;Áta;Áta Vasútállomás;45.935;18.3067
3046003;Rádiháza;Rádiháza Vasúti Megállóhely;46.65;16.7833
3052418;Galgahévíz;Galgahévíz Vasúti Megállóhely;47.6313;19.5623
3046443;Pesterzsébet;Pesterzsébet Vasúti Megállóhely;47.4338;19.0972
3053360;Egyed-Rábacsanak;Egyed-Rábacsanak Vasútállomás;47.5221;17.3165
3055250;Becske;Becske Vasúti Megállóhely;47.9233;19.35
719842;Hosszúpályi;Hosszúpályi Vasútállomás;47.3993;21.7289
3053356;Egyetemi Tangazdaság;Egyetemi Tangazdaság Vasúti Megállóhely;47.25;18.95
722821;Aranyosapáti;Aranyosapáti Vasútállomás;48.2167;22.25
716730;Orosháza;Orosháza Vasútállomás;46.5667;20.6833
3050243;Kerta;Kerta Vasútállomás;47.1514;17.2385
3054836;Bolhás;Bolhás Vasúti Megállóhely;46.2833;17.2667
715000;Tállya;Tállya Vasútállomás;48.2167;21.2167
3050042;Kisdobsza;Kisdobsza Vasúti Megállóhely;46.0167;17.6667
3045151;Soroksár;Soroksár Vasútállomás;47.402;19.1231
3042595;Zalaszentjakab;Zalaszentjakab Vasútállomás;46.4833;17.1333
721230;Egerfarmos;Egerfarmos Vasútállomás;47.7167;20.5333
716726;Oros;Oros Vasútállomás;47.95;21.8
3049893;Kiskorpád;Kiskorpád Vasútállomás;46.36;17.6007
3052636;Fertőszéplak-Fertőd;Fertőszéplak-Fertőd Vasúti Megállóhely;47.618;16.8507
3054541;Ceglédbercel-Cserő;Ceglédbercel-Cserő Vasútállomás;47.2101;19.6875
8425801;Csánig;Csánig Vasúti Megállóhely;47.4302;17.026
3053916;Csór-Nádasdladány;Csór-Nádasdladány Vasútállomás;47.1739;18.2206
714709;Tiszaszőlős;Tiszaszőlős Vasútállomás;47.5667;20.7333
721310;Dombostanya;Dombostanya Vasúti Megállóhely;47.6028;21.7065
714186;Vásárosnamény;Vásárosnamény Vasútállomás;48.1254;22.3133
714414;Újszentmargita;Újszentmargita Vasútállomás;47.75;21.1167
722947;Almáskert;Almáskert Vasúti Megállóhely;46.6667;20.5
716967;Nyékládháza;Nyékládháza Vasútállomás;47.9833;20.8333
3044820;Százhalombatta;Százhalombatta Vasútállomás;47.3167;18.9
3043844;Tolna-Mözs;Tolna-Mözs Vasútállomás;46.4132;18.7487
3048280;Mátraverebély;Mátraverebély Vasúti Megállóhely;47.9685;19.7791
719589;Jósvafő-Aggtelek;Jósvafő-Aggtelek Vasútállomás;48.4833;20.7
716944;Nyírbogát;Nyírbogát Vasútállomás;47.7833;22.05
3043067;Vasegerszeg;Vasegerszeg Vasúti Megállóhely;47.3745;16.9283
3052851;Felsőkörtvélyes;Felsőkörtvélyes Vasúti Megállóhely;46.9333;18.6
718909;Kisköre-Tiszahíd;Kisköre-Tiszahíd Vasúti Megállóhely;47.4667;20.5333
717134;Nagyszekeres;Nagyszekeres Vasútállomás;47.9833;22.6167
722475;Battonya;Battonya Vasútállomás;46.2833;21.0167
717633;Mezőtúr;Mezőtúr Vasútállomás;47.0167;20.6167
3047342;Nógrád;Nógrád Vasútállomás;47.9;19.05
715257;Szikszó-Vásártér;Szikszó-Vásártér Vasúti Megállóhely;48.1833;20.9333
3055564;Balatonfüred;Balatonfüred Vasútállomás;46.95;17.8833
719065;Királd;Királd Vasútállomás;48.25;20.3833
3052847;Felsőlajos;Felsőlajos Vasúti Megállóhely;47.0675;19.4993
714693;Tiszavárkony;Tiszavárkony Vasútállomás;47.0667;20.15
3046910;Örkény;Örkény Vasútállomás;47.1338;19.446
3042773;Vizslás;Vizslás Vasúti Megállóhely;48.0399;19.8072
3051471;Hidas-Bonyhád;Hidas-Bonyhád Vasútállomás;46.2721;18.5209
3051323;Hort-Csány;Hort-Csány Vasútállomás;47.6667;19.8
716940;Nyírcsaholy;Nyírcsaholy Vasúti Megállóhely;47.9;22.35
3054128;Csibrák;Csibrák Vasúti Megállóhely;46.4667;18.35
722732;Bagimajor;Bagimajor Vasúti Megállóhely;47.0667;20.3167
714775;Tiszaeszlár;Tiszaeszlár Vasútállomás;48.0167;21.5
3053588;Dombóvár;Dombóvár Vasútállomás;46.3667;18.15
3055297;Bátaszék;Bátaszék Vasútállomás;46.2;18.7167
716892;Nyírtelek;Nyírtelek Vasútállomás;48.0;21.6167
721860;Csanádpalota;Csanádpalota Vasútállomás;46.25;20.7333
3053160;Esztergom;Esztergom Vasútállomás;47.7833;18.75
716797;Onga;Onga Vasútállomás;48.1167;20.9
722553;Báránd;Báránd Vasútállomás;47.3;21.25
715425;Szeged;Szeged Vasútállomás;46.2405;20.1436
715343;Szentannapuszta;Szentannapuszta Vasúti Megállóhely;47.5206;21.9657
3053574;Dömsöd;Dömsöd Vasútállomás;47.1101;19.0795
720990;Fegyvernek-Örményes;Fegyvernek-Örményes Vasútállomás;47.1833;20.5667
715905;Sáp;Sáp Vasútállomás;47.2667;21.3667
3049119;Külsővat;Külsővat Vasútállomás;47.2802;17.2217
3045200;Somoskőújfalu;Somoskőújfalu Vasútállomás;48.167;19.821
718737;Kisvárda;Kisvárda Vasútállomás;48.2167;22.1
721191;Elágazás;Elágazás Vasútállomás;48.2667;21.55
719226;Kengyel;Kengyel Vasútállomás;47.0833;20.3333
719125;Kétegyháza;Kétegyháza Vasútállomás;46.5333;21.1667
3049695;Kistótfalu;Kistótfalu Vasúti Megállóhely;45.9096;18.3155
716275;Pusztakettős;Pusztakettős Vasúti Megállóhely;47.4667;20.75
718636;Komádi;Komádi Vasútállomás;46.9667;21.5
3042864;Villány;Villány Vasútállomás;45.8769;18.4506
721272;Dubicsány;Dubicsány Vasúti Megállóhely;48.2833;20.5
716731;Orosháza-Üveggyár;Orosháza-Üveggyár Vasúti Megállóhely;46.55;20.6833
3046770;Pakod;Pakod Vasúti Megállóhely;46.9667;17.0
716904;Nyírmeggyes;Nyírmeggyes Vasúti Megállóhely;47.9333;22.2667
721883;Csabacsűd;Csabacsűd Vasútállomás;46.8167;20.65
719805;Ibrány;Ibrány Vasútállomás;48.1167;21.7
3044476;Szigetszentmárton-Szigetújfalu;Szigetszentmárton-Szigetújfalu Vasútállomás;47.2276;18.9462
3042636;Zalaegerszeg-Ola;Zalaegerszeg-Ola Vasúti Megállóhely;46.8333;17.8167
3055520;Balatonújlak;Balatonújlak Vasúti Megállóhely;46.6667;17.4
3049507;Komló;Komló Vasútállomás;46.2;18.2667
719116;Kéthalom;Kéthalom Vasúti Megállóhely;47.0;21.0
3050612;Kaposvár;Kaposvár Vasútállomás;46.3667;17.8
3044150;Tápiószele;Tápiószele Vasútállomás;47.3333;19.8833
3055483;Balotaszállás;Balotaszállás Vasútállomás;46.35;19.5333
3052033;Gyöngyöshalász;Gyöngyöshalász Vasúti Megállóhely;47.7442;19.9322
3045841;Rétszilas;Rétszilas Vasútállomás;46.8105;18.6011
716159;Rátka;Rátka Vasúti Megállóhely;48.2;21.2333
3048629;Maglódi Nyaraló;Maglódi Nyaraló Vasúti Megállóhely;47.4348;19.3648
3044307;Szombathely;Szombathely Vasútállomás;47.2376;16.6321
3048842;Lenti;Lenti Vasútállomás;46.6167;16.5333
715268;Szikáncs;Szikáncs Vasútállomás;46.3667;20.45
3045382;Seregélyes;Seregélyes Vasútállomás;47.1167;18.5833
720479;Görbeháza;Görbeháza Vasúti Megállóhely;47.85;21.15
721744;Cserepes;Cserepes Vasúti Megállóhely;47.7;21.0833
717657;Mezőkeresztes-Mezőnyárád;Mezőkeresztes-Mezőnyárád Vasútállomás;47.85;20.6833
713928;Záhony;Záhony Vasútállomás;48.4;22.1833
3043967;Terézhalom;Terézhalom Vasúti Megállóhely;46.3167;19.3667
3047584;Nagypeterd;Nagypeterd Vasúti Megállóhely;46.05;17.9
3053480;Dunai Finomító;Dunai Finomító Vasútállomás;47.3;18.8833
714035;Vilmaszállás;Vilmaszállás Vasúti Megállóhely;46.3667;20.0333
714011;Virányos;Virányos Vasúti Megállóhely;48.0667;21.5167
715351;Szendrő;Szendrő Vasútállomás;48.4;20.7167
715961;Sajókaza;Sajókaza Vasútállomás;48.2833;20.5833
720019;Hernádvécse;Hernádvécse Vasúti Megállóhely;48.5333;21.2
722338;Berekhát;Berekhát Vasúti Megállóhely;46.6167;20.2667
3055291;Baté;Baté Vasútállomás;46.35;17.95
717398;Nagydobos;Nagydobos Vasútállomás;48.05;22.3167
3051149;Ilonaszállás;Ilonaszállás Vasúti Megállóhely;46.5833;19.8
3048099;Mezőlak;Mezőlak Vasútállomás;47.3232;17.3665
3045549;Sárhida;Sárhida Vasúti Megállóhely;46.75;16.85
3042868;Villánykövesd;Villánykövesd Vasúti Megállóhely;45.8833;18.4333
714511;Turgony;Turgony Vasúti Megállóhely;47.2167;20.65
3055163;Belsőnyír;Belsőnyír Vasúti Megállóhely;46.9167;19.6167
3044137;Tapolca;Tapolca Vasútállomás;46.8833;17.4333
3048626;Mágocs-Alsómocsolád;Mágocs-Alsómocsolád Vasútállomás;46.3066;18.224
3050646;Kápolnásnyék;Kápolnásnyék Vasútállomás;47.25;18.7
3042954;Verőce;Verőcemaros Vasútállomás;47.8235;19.0379
3045073;Sülysáp;Sülysáp Vasútállomás;47.45;19.5333
3052982;Fekete;Fekete Vasúti Megállóhely;46.9833;19.7333
3055527;Balatonszepezd;Balatonszepezd Vasúti Megállóhely;46.85;17.6667
3050777;Kajdacs;Kajdacs Vasúti Megállóhely;46.5881;18.6499
719492;Kállósemjén;Kállósemjén Vasútállomás;47.8667;21.9333
3055667;Bajti-elágazás;Bajti-elágazás Vasúti Megállóhely;47.2579;16.977
3050987;Jákó-Nagybajom;Jákó-Nagybajom Vasútállomás;46.3442;17.5554
720764;Folyás;Folyás Vasútállomás;47.8;21.1333
3047407;Nemeskeresztúr;Nemeskeresztúr Vasúti Megállóhely;47.0928;17.1833
3055295;Báta;Báta Vasútállomás;46.141;18.7179
717789;Martfű;Martfű Vasútállomás;47.0167;20.3
719109;Kétpó;Kétpó Vasútállomás;47.0833;20.4833
3047675;Nagykapornak;Nagykapornak Vasútállomás;46.8167;16.9333
3048179;Ménesmajor;Ménesmajor Vasúti Megállóhely;46.8833;18.8
722772;Aszaló;Aszaló Vasúti Megállóhely;48.2167;20.9667
6690559;Rákosfalva;Rákosfalva Vasútállomás;47.5052;19.1514
716269;Pusztakürt;Pusztakürt Vasúti Megállóhely;47.4167;20.1833
721587;Csongrád;Csongrád Vasútállomás;46.7167;20.1333
3042768;Vízvár;Vízvár Vasútállomás;46.1024;17.2376
3050640;Kapoly;Kapoly Vasútállomás;46.7167;17.9833
3043777;Törökbálint;Törökbálint Vasúti Megállóhely;47.4495;18.9109
3045821;Rigács;Rigács-Megyer Vasúti Megállóhely;47.0604;17.1988
3042664;Zagyvapálfalva;Zagyvapálfalva Vasútállomás;48.0667;19.7833
3046090;Pusztamonostor;Pusztamonostor Vasútállomás;47.5667;19.8
3046843;Oszkó;Oszkó Vasútállomás;47.0568;16.8523
3055595;Balatonakali-Dörgicse;Balatonakali-Dörgicse Vasútállomás;46.8833;17.75
720063;Hejce-Vilmány;Hejce-Vilmány Vasútállomás;48.4333;21.25
3054664;Budafa;Budafa Vasúti Megállóhely;46.85;16.6333
717041;Napkor;Napkor Vasúti Megállóhely;47.95;21.8667
3043805;Toponár;Toponár Vasútállomás;46.4;17.8333
3054535;Cegléd;Cegléd Vasútállomás;47.1828;19.806
716190;Rákóczitanya;Rákóczitanya Vasúti Megállóhely;48.0167;22.1833
3045218;Somogyszob;Somogyszob Vasútállomás;46.3;17.3
3047923;Mórágy;Mórágy Vasútállomás;46.2382;18.6268
3046224;Pörböly;Pörböly Vasútállomás;46.1991;18.8255
3053513;Drégelypalánk;Drégelypalánk Vasútállomás;48.0545;19.0462
716931;Nyíregyháza;Nyíregyháza Vasútállomás;47.9467;21.7061
718631;Komját;Komjáti Vasúti Megállóhely;48.55;20.7667
718923;Kiskapud;Kiskapud Vasútállomás;48.2167;20.35
3044152;Tápiószecső;Tápiószecső Vasútállomás;47.4333;19.6167
3043287;Váchartyán;Váchartyán Vasúti Megállóhely;47.7333;19.25
717770;Mátészalka;Mátészalka Vasútállomás;47.95;20.4
717590;Mindszent;Mindszent Vasútállomás;46.5167;20.2
3045924;Rédics;Rédics Vasútállomás;46.6183;16.4717
717650;Mezőkövesd;Mezőkövesd Vasútállomás;47.8;20.5667
3055691;Bag;Bag Vasúti Megállóhely;47.6413;19.4719
719398;Karcag-Vásártér;Karcag-Vásártér Vasútállomás;47.3167;20.9
717614;Mikepércs;Mikepércs Vasúti Megállóhely;47.4333;21.6167
3047126;Őrbottyán;Őrbottyán Vasútállomás;47.7;19.2833
3052044;Gyömrő;Gyömrő Vasútállomás;47.4333;19.3833
714978;Tápiómajor;Tápiómajor Vasúti Megállóhely;47.3306;20.0318
3055605;Bak;Bak Vasútállomás;46.7167;16.85
722180;Bódvaszilas;Bódvaszilas Vasútállomás;48.5333;20.75
3053298;Enese;Enese Vasútállomás;47.6442;17.4249
3043294;Uzsa;Uzsa Vasútállomás;46.9167;17.3333
8426433;Tócóvölgy;Tócóvölgy;47.5294;21.5888
3048190;Mélykút;Mélykút Vasútállomás;46.25;19.35
716925;Nyírgelse;Nyírgelse Vasútállomás;47.75;22.0
3042855;Vinár;Vinár Vasútállomás;47.306;17.2847
718478;Kótaj;Kótaj Vasútállomás;48.05;21.7167
3055593;Balatonakarattya;Balatonakarattya Vasúti Megállóhely;47.0167;18.1667
3049668;Kitérőgyár;Kitérőgyár Vasúti Megállóhely;47.7667;19.95
717520;Monostorpályi;Monostorpályi Vasútállomás;47.3833;21.7667
714569;Tószeg;Tószeg Vasútállomás;47.1;20.15
718314;Kunmadaras;Kunmadaras Vasútállomás;47.4167;20.8
3043079;Vásárosdombó;Vásárosdombó Vasútállomás;46.3;18.15
3043901;Tiszaalpár;Tiszaalpár Vasútállomás;46.8167;19.9833
715414;Szegvár;Szegvár Vasútállomás;46.5833;20.25
719963;Hódmezővásárhely-Ipartelepek;Hódmezővásárhely-Ipartelepek Vasúti Megállóhely;46.4;20.3833
6691850;Istvántelek;Istvántelek Vasúti Megállóhely;47.5504;19.1067
718598;Konyár;Konyár Vasútállomás;47.3167;21.6833
720678;Füzesgyarmatfürdő;Füzesgyarmatfürdő Vasúti Megállóhely;47.0833;21.2167
3045297;Soltvadkert;Soltvadkert Vasútállomás;46.5833;19.3833
3055197;Belecska;Belecska Vasúti Megállóhely;46.65;18.4167
722468;Bazsómajor;Bazsómajor Vasúti Megállóhely;47.6667;20.3167
720647;Gacsály;Gacsály Vasútállomás;47.9333;22.7667
718717;Klárafalva;Klárafalva Vasútállomás;46.204;20.318
3054642;Angyalföld;Angyalföld Vasútállomás;47.5496;19.0899
3049665;Klábertelep;Klábertelep Vasútállomás;47.0;19.55
3047300;Nyársapát;Nyársapát Vasútállomás;47.101;19.7919
3054959;Bocfölde;Bocfölde Vasúti Megállóhely;46.7833;16.8333
3045947;Raposka;Raposka Vasúti Megállóhely;46.8333;17.4167
3046322;Pinnye;Pinnye Vasútállomás;47.6002;16.7694
3042991;Velence;Velence Vasúti Megállóhely;47.2333;18.6667
714462;Újfehértó;Újfehértó Vasútállomás;47.8;21.7167
722679;Baktó;Baktó Vasúti Megállóhely;46.3;20.1667
715336;Szentes;Szentes Vasútállomás;46.6667;20.2833
3049879;Kiskunhalas;Kiskunhalas Vasútállomás;46.4333;19.5
3055027;Bicske;Bicske Vasútállomás;47.4833;18.6167
722838;Arad;Aradványpuszta Vasúti Megállóhely;47.6667;21.85
3054650;Budakalász;Budakalász Felső Vasúti Megállóhely;47.6333;19.05
715256;Szikszó;Szikszó Vasútállomás;48.2;20.9333
3045179;Sopron;Sopron-GYSEV Pályaudvar;47.6782;16.586
3053433;Dunavarsány;Dunavarsány Vasúti Megállóhely;47.2667;19.0667
714699;Tiszaug;Tiszaug-Tiszahídfő Vasúti Megállóhely;46.8667;20.05
3044668;Szentgotthárd;Szentgotthárd Vasútállomás;46.9571;16.2632
3045492;Sárszentmihály;Sárszentmihály Vasútállomás;47.17;18.3148
717411;Nagycsécs;Nagycsécs Vasúti Megállóhely;47.9667;20.95
3055775;Babócsa;Babócsa Vasútállomás;46.0333;17.35
716523;Pátyod;Pátyod Vasúti Megállóhely;47.8492;22.6129
3053801;Daránypuszta;Daránypuszta Vasútállomás;46.7667;18.15
3053020;Feketebézseny;Feketebézseny Vasúti Megállóhely;46.7167;17.5833
716264;Pusztapó;Pusztapó Vasúti Megállóhely;47.1;20.45
3047870;Murakeresztúr;Murakeresztúr Vasútállomás;46.3667;16.8667
3052400;Gamásza;Gamásza Vasúti Megállóhely;46.9333;18.1333
3055769;Bábonymegyer;Bábonymegyer Vasútállomás;46.7456;18.1108
3050425;Kecskéscsárda;Kecskéscsárda Vasúti Megállóhely;47.1833;19.9167
3046824;Öttevény;Öttevény Vasútállomás;47.7333;17.4833
3045946;Rárós;Ráróspuszta Vasúti Megállóhely;48.2072;19.5416
3055641;Bakonygyirót;Bakonygyirót Vasúti Megállóhely;47.4167;17.8
722372;Benedekvölgy;Benedekvölgy Vasúti Megállóhely;47.4;21.3333
8410973;Sarród;Sarród Vasúti Megállóhely;47.6354;16.8566
3047406;Nemeske;Nemeske Vasúti Megállóhely;46.0167;17.7167
3044424;Szilsárkány;Szilsárkány Vasúti Megállóhely;47.5589;17.2373
3042588;Zalaszentmihály-Pacsa;Zalaszentmihály-Pacsa Vasútállomás;46.7167;16.95
6694196;Szombathely-Repülőtér;Szombathely-Repülőtér mh.;47.2678;16.6189
720491;Göncruszka;Göncruszka Vasúti Megállóhely;48.45;21.25
715072;Szőreg;Szőreg Vasútállomás;46.2;20.1833
3047202;Ócsa;Ócsa Vasútállomás;47.3;19.2333
3045885;Répáspuszta;Répáspuszta Vasúti Megállóhely;46.4333;17.8333
3046504;Pécsvárad;Pécsvárad Vasútállomás;46.1572;18.4319
3055630;Bakonypéterd;Bakonypéterd Vasúti Megállóhely;47.4667;17.8
717266;Nagykereki;Nagykereki Vasútállomás;47.1833;21.8
716341;Porcsalma-Tyukod;Porcsalma-Tyukod Vasútállomás;47.8676;22.5691
721222;Eger-Tihamér;Eger-Tihamér Vasútállomás;47.8833;20.4
717903;Maklár;Maklár Vasútállomás;47.8;20.4167
3046350;Piliscsaba;Piliscsaba Vasútállomás;47.6333;19.8333
3053134;Fácánkert;Fácánkert Vasúti Megállóhely;46.4389;18.7431
717278;Nagykálló;Nagykálló Vasútállomás;47.8726;21.8248
3055366;Barcs;Barcs Vasútállomás;45.95;17.45
3043859;Tököl;Tököl Vasútállomás;47.3167;18.9833
3045474;Sashalom;Sashalom Vasúti Megállóhely;47.5091;19.1791
715456;Szászberek;Szászberek Vasútállomás;47.3167;20.1
3055706;Bagod;Bagodvitenyéd Vasútállomás;46.8833;16.75
3043359;Ukk;Ukk Vasútállomás;47.0367;17.1979
3051966;Győrszentiván;Győrszentiván Vasútállomás;47.6882;17.7458
3052356;Gecse-Gyarmat;Gecse-Gyarmat Vasútállomás;47.45;17.5167
3046378;Petőháza;Petőháza Vasútállomás;47.5957;16.8895
3045164;Sorkifalud;Sorkifalud Vasúti Megállóhely;47.1333;16.7167
3054546;Cece;Cece Vasútállomás;46.772;18.6245
3048890;Leányvár;Leányvár Vasútállomás;47.6872;18.7735
3056288;Almásfüzitő;Almásfüzitő Vasútállomás;47.7252;18.262
3042556;Zebegény;Zebegény Vasútállomás;47.8;18.9167
3044086;Taszár;Taszár Vasútállomás;46.3639;17.8934
717075;Nagytőke;Nagytőke Vasútállomás;46.7667;20.3
718750;Kistőke;Kistőke Vasúti Megállóhely;46.7167;20.2833
714758;Tiszajenő-Vezseny;Tiszajenő-Vezseny Vasútállomás;47.0333;20.15
3052571;Fonyód;Fonyód Vasútállomás;46.75;17.5667
3046702;Pamuk;Pamuk Vasúti Megállóhely;46.55;17.6667
3055606;Baktüttös;Baktüttös Vasúti Megállóhely;46.7;16.8333
3056356;Ajka-Gyártelep;Ajka-Gyártelep Vasúti Megállóhely;47.0967;17.555
717740;Medgyes;Medgyesegyháza Vasútállomás;46.5;21.0333
3052618;Fityeház;Fityeház Vasúti Megállóhely;46.3667;16.9167
721139;Erdőbénye;Erdőbénye Vasúti Megállóhely;48.2167;21.4
3052222;Gógánfa;Gógánfa Vasútállomás;47.0167;17.2167
718573;Koportos;Koportos Vasúti Megállóhely;48.1089;22.2942
3042597;Zalaszentiván;Zalaszentiván Vasútállomás;46.8833;16.8833
3044670;Szentgál;Szentgál Vasútállomás;47.1371;17.7057
3042644;Zalabér;Zalabér-Batyk Vasútállomás;46.9831;17.0406
3054540;Ceglédbercel;Ceglédbercel Vasúti Megállóhely;47.2167;19.6667
720338;Győrtelek;Győrtelek Vasúti Megállóhely;47.9333;22.4333
3050151;Királyegyháza-Rigópuszta;Királyegyháza-Rigópuszta Vasúti Megállóhely;46.0;17.9667
717484;Murony;Murony Vasútállomás;46.7667;20.05
3052628;Filatorigát;Filatorigát Vasúti Megállóhely;47.553;19.0458
717660;Mezőhegyes;Mezőhegyes Vasútállomás;46.3167;20.8167
3055891;Aquincum;Aquincum felső Vasúti Megállóhely;47.5656;19.0538
3044159;Tápiógyörgye;Tápiógyörgye Vasútállomás;47.3167;19.9667
717222;Nagymajor;Nagymajor Vasúti Megállóhely;47.65;20.9833
3046175;Pötréte;Pötréte Vasúti Megállóhely;46.6833;16.95
719769;Ináncs;Ináncs Vasúti Megállóhely;48.2833;21.0667
3052539;Fót;Fót Vasútállomás;47.6167;19.1833
721067;Fábiánsebestyén;Fábiánsebestyén Vasútállomás;46.6667;20.45
3047208;Óbuda;Óbuda Vasútállomás;47.5695;19.0308
719916;Homok;Homok Vasúti Megállóhely;46.95;20.2667
3045340;Simontornya;Simontornya Vasútállomás;46.75;18.5333
3046576;Pásztó;Pásztó Vasútállomás;47.9167;19.6833
3052106;Gutorfölde;Gutorfölde Vasútállomás;46.65;16.75
3053161;Esztergom-Kertváros;Esztergom-Kertváros Vasútállomás;47.75;18.7333
715706;Sóshalom;Sóshalom Vasúti Megállóhely;46.4833;20.4833
722844;Apavára;Apavára Vasúti Megállóhely;47.3167;21.0167
3047981;Mogyorósbánya;Mogyorósbánya Vasúti Megállóhely;47.75;18.6
717974;Mád;Mád Vasútállomás;48.1833;21.2667
718722;Kiszombor;Kiszombor Vasútállomás;46.1833;20.4167
714792;Tiszabercel;Tiszabercel Vasútállomás;48.1667;21.6
718806;Kisszekeres;Kisszekeres Vasúti Megállóhely;47.9667;22.6333
3049895;Kiskőrös;Kiskőrös Vasútállomás;46.6333;19.3
3043677;Tura;Tura Vasútállomás;47.6257;19.6007
3048843;Lentiszombathely;Lentiszombathely Vasúti Megállóhely;46.6167;16.5667
3047362;Neszmély;Neszmély Vasútállomás;47.7344;18.3472
3044896;Szárazd;Szárazd Vasúti Megállóhely;46.5967;18.4254
715299;Szerencs;Szerencs Vasútállomás;48.15;21.2
3055190;Belezna;Belezna Vasúti Megállóhely;46.3333;16.8833
715004;Taktaszada;Taktaszada Vasúti Megállóhely;48.1167;21.15
3045036;Szabadegyháza;Szabadegyháza Vasútállomás;47.0833;18.7167
3045938;Rátót;Rátót Vasútállomás;46.9667;16.4333
3054497;Cikó;Cikó Vasúti Megállóhely;46.2667;18.5667
721220;Eger;Eger Vasútállomás;47.8833;20.3833
722422;Bélapátfalvi Cementgyár;Bélapátfalvi Cementgyár Vasúti Megállóhely;48.0667;20.3667
3044566;Szentmártonkáta;Szentmártonkáta Vasúti Megállóhely;47.4274;19.6952
3054584;Bükkösd;Bükkösd Vasútállomás;46.1125;17.9998
3045397;Selymes;Selymes Vasúti Megállóhely;46.65;19.8667
3049750;Kisszállás;Kisszállás Vasútállomás;46.279;19.5381
718320;Kunhegyes;Kunhegyes Vasútállomás;47.3833;20.65
3053236;Erdőszél;Erdőszél Vasúti Megállóhely;46.3333;19.4
714703;Tiszatelek;Tiszatelek Vasútállomás;48.1667;21.7833
3043211;Vámoscsalád;Vámoscsalád Vasúti Megállóhely;47.3851;16.9604
719966;Hodász;Hodász Vasútállomás;47.9;22.2167
718311;Kunszentmárton-Érpart;Kunszentmárton-Érpart Vasúti Megállóhely;46.8333;20.3
3053908;Csörög;Csörög Vasúti Megállóhely;47.7333;19.2
3050871;Jobbágyi;Jobbágyi Vasúti Megállóhely;47.8333;19.6833
716859;Ófehértó;Ófehértó Vasútállomás;47.95;22.05
3046502;Pécs;Pécs Vasútállomás;46.0667;18.2333
3050579;Karakószörcsök;Karakószörcsök Vasúti Megállóhely;47.1337;17.2876
3055600;Balassagyarmat;Balassagyarmat Vasútállomás;48.0833;19.3167
3047943;Molvány;Molvány Vasúti Megállóhely;46.0333;17.75
714696;Tiszaújváros;Tiszaújváros Vasútállomás;47.9167;21.05
721442;Demecser;Demecser Vasútállomás;48.1167;21.95
3047312;Nyárjas;Nyárjas Vasútállomás;46.8667;19.9333
3056269;Alsóbélatelep;Alsóbélatelep Vasúti Megállóhely;46.7333;17.5333
3042940;Vértesszőlős;Vértesszőlős Vasúti Megállóhely;47.6167;18.3833
719557;Justhmajor;Justhmajor Vasúti Megállóhely;46.6333;20.6167
720025;Hernádnémeti-Bőcs;Hernádnémeti-Bőcs Vasútállomás;48.05;20.9833
714753;Tiszakécske;Tiszakécske Vasútállomás;46.9333;20.0833
720572;Gégény;Gégény Vasúti Megállóhely;48.1333;21.9667
719389;Kardoskút;Kardoskút Vasútállomás;46.4833;20.6667
3048173;Méntelek;Méntelek Vasúti Megállóhely;46.9667;19.5833
3043879;Tófej;Tófej Vasúti Megállóhely;46.6667;16.8
3050634;Kaposfüred;Kaposfüred Vasútállomás;46.4161;17.7589
716798;Ongaújfalu;Ongaújfalu Vasúti Megállóhely;48.15;20.9167
3053692;Dinnyés;Dinnyés Vasútállomás;47.1767;18.5514
719397;Karcag;Karcag Vasútállomás;47.3;20.9333
3045189;Sopron-Déli;Sopron-Déli Pályaudvar;47.6865;16.5716
721464;Debrecen-Vásártér;Debrecen-Vásártér Vasútállomás;47.55;21.6
3045495;Sárszentágota;Sárszentágota Vasúti Megállóhely;46.9667;18.5833
719653;Jászapáti;Jászapáti Vasútállomás;47.5167;20.0667
3043355;Üllő;Üllő vasútállomás;47.3908;19.3528
3043071;Vasas-Hird;Vasas-Hird Vasútállomás;46.1167;18.35
3045038;Szabadbattyán;Szabadbattyán Vasútállomás;47.105;18.3905
3055733;Badacsonylábdihegy;Badacsonylábdihegy Vasúti Megállóhely;46.7899;17.4739
3044978;Szakály-Hőgyész;Szakály-Hőgyész Vasútállomás;46.5247;18.3892
3045636;Salköveskút-Vassurány;Salköveskút-Vassurány Vasúti Megállóhely;47.2904;16.7027
714347;Ürgehát;Ürgehát Vasúti Megállóhely;47.1167;20.3667
3046291;Piszke;Piszke Vasúti Megállóhely;47.75;18.4833
3048279;Mátravidéki Erőmű;Mátravidéki Erőmű Vasútállomás;47.7167;19.6667
714790;Tiszabezdéd;Tiszabezdéd Vasúti Megállóhely;48.3667;22.15
722162;Bogárzó;Bogárzó Vasúti Megállóhely;46.5333;20.6833
715373;Szelevény;Szelevény Vasútállomás;46.8167;20.1833
3049094;Kurd;Kurd Vasútállomás;46.4501;18.3192
3044474;Szigetszentmiklós;Szigetszentmiklós Gyártelep Vasútállomás;47.3333;19.0
3044367;Sződ-Sződliget;Sződ-Sződliget Vasúti Megállóhely;47.7283;19.155
721471;Debrecen-Csapókert;Debrecen-Csapókert Vasúti Megállóhely;47.5333;21.65
3051579;Hegyeshalom;Hegyeshalom Vasútállomás;47.9124;17.1481
3048156;Mernye;Mernye Vasútállomás;46.5167;17.8333
715309;Szepes;Szepes Vasúti Megállóhely;47.45;21.6167
3045249;Somodor;Somodor Vasúti Megállóhely;46.4833;17.8333
3050430;Kecskemét-Máriaváros;Kecskemét-Máriaváros Vasútállomás;46.9;19.6667
718619;Komoró;Komoró Vasútállomás;48.3;22.1167
3047501;Nagytétény-Diósd;Nagytétény-Diósd Vasútállomás;47.3983;18.9723
721786;Csenger;Csenger Vasútállomás;47.8333;22.6667
3042930;Veszkény;Veszkény Vasúti Megállóhely;47.5872;17.0995
719584;Józsa;Józsa Vasúti Megállóhely;47.6;21.5833
3050784;Kádárta;Kádárta Vasúti Megállóhely;47.1259;17.9531
3043230;Vajta;Vajta Vasútállomás;46.7151;18.6475
3046503;Pécs-Vasas;Pécs-Vasas Vasútállomás;46.1167;18.3167
721408;Deszk;Deszk Vasúti Megállóhely;46.2167;20.25
3044148;Tápiószentmárton;Tápiószentmárton Vasúti Megállóhely;47.3667;19.8
3043753;Tőserdő;Tőserdő Vasúti Megállóhely;46.85;19.9833
3051076;Isaszeg;Isaszeg Vasútállomás;47.5378;19.3892
3046933;Őrhalom;Őrhalom Vasúti Megállóhely;48.0772;19.3902
3044457;Szikra;Szikra Vasúti Megállóhely;46.8667;19.9667
3046887;Oroszlány;Oroszlány Vasútállomás;47.4667;18.3167
3049103;Kunszállás;Kunszállás Vasúti Megállóhely;46.7833;19.7667
3047780;Nagycenk;Nagycenk Vasútállomás;47.6011;16.6904
3051103;Ipolyvece;Ipolyvece Vasútállomás;48.0667;19.1167
3056417;Ádánd;Ádánd Vasútállomás;46.8559;18.1404
3048232;Meggyespele;Meggyespele Vasúti Megállóhely;47.4333;19.95
3051511;Herend;Herend Vasútállomás;47.1369;17.7606
3042759;Vokány;Vokány Vasútállomás;45.8991;18.3327
3046854;Öskü;Öskü Vasúti Megállóhely;47.1601;18.0748
3054755;Borsi;Borsihalom Vasúti Megállóhely;46.7667;19.9167
3047418;Nemesgörzsöny;Nemesgörzsöny Vasúti Megállóhely;47.403;17.3764
716365;Pogonyipuszta;Pogonyipuszta Vasúti Megállóhely;48.3;20.3833
714471;Újbög;Újbög Vasútállomás;46.9667;20.1
3054963;Boba;Boba Vasútállomás;47.1826;17.1915
3047350;Nógrádkövesd;Nógrádkövesd Vasútállomás;47.8833;19.3833
3045882;Répcelak;Répcelak Vasútállomás;47.4191;17.0091
3043650;Tüskevár;Tüskevár Vasútállomás;47.1287;17.3316
714618;Tompapuszta;Tompapuszta Vasúti Megállóhely;46.3167;20.9667
3054292;Csémpuszta;Csémpuszta Vasúti Megállóhely;47.7038;18.1039
719964;Hódmezővásárhelyi Népkert;Hódmezővásárhelyi Népkert Vasúti Megállóhely;46.4;20.3
721469;Debrecen-Kertváros;Debrecen-Kertváros Vasúti Megállóhely;47.5667;21.6
3050364;Kemenespálfa;Kemenespálfa Vasúti Megállóhely;47.1398;17.1836
3051766;Hanságliget;Hanságliget Vasúti Megállóhely;47.72;17.2155
3053551;Dör;Dör Vasúti Megállóhely;47.611;17.2782
3046410;Péterhida-Komlósd;Péterhida-Komlósd Vasúti Megállóhely;46.0167;17.3667
714778;Tiszadob;Tiszadob Vasútállomás;48.0;21.2167
3047650;Nagykőrös;Nagykőrös Vasútállomás;47.0333;19.75
3043713;Tóvároskert;Tóvároskert Vasúti Megállóhely;47.6487;18.3475
3045640;Salgótarján;Salgótarján Vasútállomás;48.1;19.8
3056103;Alsónyék;Alsónyék Vasúti Megállóhely;46.2;18.7333
3043785;Tormásliget;Tormásliget Vasúti Megállóhely;47.4305;16.7823
721203;Egyházerdő;Egyházerdő Vasúti Megállóhely;47.9833;21.3667
3047339;Normafa;Normafa Vasúti Megállóhely;47.5005;18.9689
3046484;Perdócmajor;Perdócmajor Vasúti Megállóhely;46.2034;17.0801
714656;Tokaj;Tokaj Vasútállomás;48.1;21.4167
3049060;Kutas;Kutas Vasúti Megállóhely;46.3333;17.45
3045183;Sopronkövesd;Sopronkövesd Vasúti Megállóhely;47.5475;16.7485
3050374;Kemendollár;Kemendollár Vasúti Megállóhely;46.9;16.9667
6690926;Nagytétény;Nagytétény Vasútállomás;47.3883;18.9752
3053710;Devecser;Devecser Vasútállomás;47.1124;17.4355
3045109;Sövénykút;Sövénykút Vasúti Megállóhely;47.4167;18.1333
3053487;Dunaföldvár;Dunaföldvár Vasútállomás;46.8;18.9167
3050593;Kapuvár;Kapuvár Vasútállomás;47.5817;17.044
3045478;Sásd;Sásd Vasútállomás;46.2667;18.1
715297;Szerep;Szerep Vasúti Megállóhely;47.2333;21.1833
3055587;Balatonarács;Balatonarács Vasúti Megállóhely;46.9667;17.9
715447;Szatymaz;Szatymaz Vasútállomás;46.35;20.05
3052656;Ferenctelep;Ferenctelep Vasúti Megállóhely;45.9833;17.3833
3049643;Kőbánya-Kispest;Kőbánya-Kispest Vasútállomás;47.4643;19.149
718213;Lapistó;Lapistó Vasúti Megállóhely;46.6667;20.3333
3055532;Balatonszemes;Balatonszemes Vasútállomás;46.8167;17.7833
3045916;Regöly;Regöly Vasúti Megállóhely;46.5689;18.396
3050992;Ják-Balogunyom;Ják-Balogunyom Vasútállomás;47.1667;16.6333
3048453;Marcali;Marcali Vasútállomás;46.5838;17.4206
3056329;Alap;Alap Vasútállomás;46.8315;18.6562
3048596;Magyarkeresztúr-Zsebeháza;Magyarkeresztúr-Zsebeháza Vasúti Megállóhely;47.5143;17.1761
3046024;Ráckeve;Ráckeve Vasútállomás;47.1833;18.85
3053741;Dénesfa;Dénesfa Vasúti Megállóhely;47.4488;17.0551
716855;Ohat-Pusztakócs;Ohat-Pusztakócs Vasútállomás;47.6167;20.95
3055562;Balatonfűzfő;Balatonfűzfő Vasútállomás;47.05;18.05
721463;Debrecen;Debrecen Vasútállomás;47.5193;21.6286
3050629;Kaposhomok;Kaposhomok Vasúti Megállóhely;46.3677;17.9206
3047200;Őcsény;Őcsény Vasútállomás;46.3181;18.7432
3043523;Újkér;Újkér Vasúti Megállóhely;47.4549;16.7871
714580;Törökszentmiklós;Törökszentmiklós Vasútállomás;47.1667;20.4
3042599;Zalaszentgyörgy;Zalaszentgyörgy Vasútállomás;46.8667;16.7167
3048724;Lőrinci;Lőrinci Vasútállomás;47.7333;19.6667
3054725;Bősárkány;Bősárkány Vasútállomás;47.6856;17.2345
3047939;Monor;Monor Vasútállomás;47.3333;19.45
717896;Makó-Újvásártér;Makó-Újvásártér Vasúti Megállóhely;46.2167;20.5167
720279;Hajdúsámson;Hajdúsámson Vasútállomás;47.6167;21.7667
3053004;Feketehalom;Feketehalom Vasúti Megállóhely;46.6;19.35
714489;Tuzsér;Tuzsér Vasútállomás;48.35;22.15
3055517;Balatonvilágos;Balatonvilágos Vasúti Megállóhely;46.9667;18.1667
3044864;Szárliget;Szárliget Vasútállomás;47.5199;18.4957
3048628;Maglód;Maglód Vasútállomás;47.4333;19.3333
713904;Ziliz;Ziliz Vasúti Megállóhely;48.25;20.7833
719736;Istvánháza;Istvánháza Vasúti Megállóhely;46.85;20.25
3052947;Felsőbogátpuszta;Felsőbogátpuszta Vasúti Megállóhely;46.35;17.3833
3050753;Kákics;Kákics Vasúti Megállóhely;45.9;17.85
3053482;Dunaharaszti;Dunaharaszti Vasútállomás;47.35;19.1
3047891;Mosonszolnok;Mosonszolnok Vasútállomás;47.8522;17.1605
3055530;Balatonszentgyörgy;Balatonszentgyörgy Vasútállomás;46.6948;17.2921
3051497;Hernád;Hernád Vasútállomás;47.161;19.4042
6694195;Kámon;Kámon Vasúti Megállóhely;47.2543;16.6259
3046815;Ötvöskónyi;Ötvöskónyi Vasúti Megállóhely;46.2833;17.3667
717067;Nagyút;Nagyút Vasútállomás;47.7333;20.1667
718743;Kisújszállás;Kisújszállás Vasútállomás;47.2167;20.75
3055684;Baja-Dunafürdő;Baja-Dunafürdő Vasúti Megállóhely;46.1924;18.9213
3056125;Alsóméntelek;Alsóméntelek Vasúti Megállóhely;46.9667;19.5833
3055729;Badacsonytomaj;Badacsonytomaj Vasútállomás;46.8;17.5167
3052237;Godisa;Godisa Vasútállomás;46.2224;18.1156
719208;Kerekdomb;Kerekdomb Vasúti Megállóhely;46.9;20.05
3046860;Örvényes;Örvényes Vasúti Megállóhely;46.9167;17.8167
3045503;Sárpentele;Sárpentele Vasúti Megállóhely;47.1689;18.3605
3056440;Ábrahámhegy;Ábrahámhegy Vasúti Megállóhely;46.8153;17.5732
720275;Hajdúszoboszló;Hajdúszoboszló Vasútállomás;47.4333;21.4
721774;Csépa;Csépa Vasútállomás;46.8167;20.1167
723034;Abaújszántó;Abaújszántó Vasútállomás;48.2833;21.1833
3051961;Győr;Győr Railway Station;47.6818;17.6338
715840;Sáta;Sáta Vasúti Megállóhely;48.1833;20.3833
714887;Telekföld;Telekföld Vasúti Megállóhely;47.6;21.4167
3044350;Szokolya;Szokolya Vasútállomás;47.8713;19.0305
3055822;Aszód;Aszód Vasútállomás;47.65;19.5
3050958;Jánosháza;Jánosháza Vasútállomás;47.1167;17.1667
3049488;Kóny;Kóny Vasútállomás;47.6325;17.3585
3043292;Vác-Alsóváros;Vác-Alsóváros Vasúti Megállóhely;47.7667;19.15
3053973;Csömödér-Páka;Csömödér-Páka Vasútállomás;46.6081;16.6447
3042887;Világoshegy;Világoshegy Vasúti Megállóhely;46.8667;19.95
713987;Vitka;Vitka Vasútállomás;48.1;22.3167
3048585;Magyarnándor;Magyarnándor Vasútállomás;47.9667;19.35
3047575;Nagyrécse;Nagyrécse Vasútállomás;46.4667;17.05
3045244;Somogyaszaló;Somogyaszaló Vasúti Megállóhely;46.45;17.8333
720825;Ferenctanya;Ferenctanya Vasúti Megállóhely;48.0167;21.5833
722572;Bánréve;Bánréve Vasútállomás;48.3;20.35
3047985;Mogyoród;Mogyoród Vasútállomás;47.5957;19.272
3053379;Egervár-Vasboldogasszony;Egervár-Vasboldogasszony Vasútállomás;46.9333;16.8667
3044527;Szepezdfürdő;Szepezdfürdő Vasúti Megállóhely;46.85;17.65
717395;Nagyecsed;Nagyecsed Vasútállomás;47.8833;22.3833
3052416;Galgamácsa;Galgamácsa Vasútállomás;47.7;19.3833
3049110;Kunfehértó;Kunfehértó Vasútállomás;46.3667;19.4167
721546;Csugar;Csugar Vasútállomás;47.05;20.55
3053282;Ercsi;Ercsi Vasútállomás;47.25;18.8833
3049359;Kőszeg;Kőszeg Vasútállomás;47.3817;16.5568
3050586;Karád;Karád Vasútállomás;46.68;17.8746
722635;Balmazújváros;Balmazújváros Vasútállomás;47.6167;21.3333
721149;Eperjes;Eperjeske Alsó Vasúti Megállóhely;48.3333;22.2
722221;Bocskaikert;Bocskaikert Vasúti Megállóhely;47.65;21.6667
3047409;Nemeskér-Egyházasfalu;Nemeskér-Egyházasfalu Vasúti Megállóhely;47.4784;16.7849
3051565;Hegyfalu;Hegyfalu Vasútállomás;47.3578;16.8982
3047924;Mórágy-Alsónána;Mórágy-Alsónána Vasúti Megállóhely;46.2226;18.658
3045696;Rudics;Rudics Vasútállomás;46.1333;19.35
3043188;Váralja;Váralja Vasúti Megállóhely;46.2833;18.4333
3052337;Gelse;Gelse Vasútállomás;46.6;17.0
715955;Sajómercse;Sajómercse Vasúti Megállóhely;48.2667;20.4333
3042615;Zalalövő;Zalalövő Vasútállomás;46.85;16.55
3052572;Fonyódliget;Fonyódliget Vasúti Megállóhely;46.759;17.5914
3043367;Újvenyim;Újvenyim Vasúti Megállóhely;46.9366;18.8719
714072;Vésztő;Vésztő Vasútállomás;46.95;21.2667
3049706;Kisterenye;Kisterenye Vasútállomás;48.0099;19.8324
3047961;Moha;Moha Vasútállomás;47.2469;18.3398
3054821;Bóly;Bóly Vasútállomás;45.9387;18.5379
3045990;Rajka;Rajka Vasútállomás;48.0;17.2
3042577;Zamárdi;Zamárdi Vasúti Megállóhely;46.8833;17.9
3055583;Balatonboglár;Balatonboglár Vasútállomás;46.7833;17.6667
3052041;Gyöngyfa-Magyarmecske;Gyöngyfa-Magyarmecske Vasúti Megállóhely;45.9833;17.9667
722390;Belsőperegpuszta;Belsőperegpuszta Vasúti Megállóhely;46.3167;20.9167
3046836;Osztopán;Osztopán Vasútállomás;46.5167;17.65
3049099;Kunszentmiklós-Tass;Kunszentmiklós-Tass Vasútállomás;47.017;19.1012
3050427;Kecskemét;Kecskemét Vasútállomás;46.9167;19.7
3044771;Székesfehérvár;Székesfehérvár Vasútállomás;47.1831;18.4244
3056422;Adács;Adács Vasúti Megállóhely;47.6966;19.9761
716947;Nyírbátor;Nyírbátor Vasútállomás;47.85;22.1167
3055037;Biatorbágy;Biatorbágy Vasútállomás;47.4667;18.8333
718483;Kősziget;Kősziget Vasúti Megállóhely;47.0;20.9
719272;Kék;Kék Vasúti Megállóhely;48.1;21.8833
722996;Ajak;Ajak Vasúti Megállóhely;48.1833;22.05
718112;Létavértes;Létavértes Vasútállomás;47.4;21.8833
3055086;Berkenye;Berkenye Vasútállomás;47.8833;19.0667
714740;Tiszalök;Tiszalök Vasútállomás;48.0167;21.3667
3049363;Kőszegfalva;Kőszegfalva Vasúti Megállóhely;47.3616;16.5677
714691;Tiszavasvári;Tiszavasvári Vasútállomás;47.9667;21.3833
8426436;Rábahíd;Rábahíd Vasúti Megállóhely;47.4369;17.3394
3052020;Gyöngyös;Gyöngyös Vasútállomás;47.7833;19.9333
3046506;Pécsújhegy;Pécsújhegy Vasúti Megállóhely;46.0833;18.2833
713909;Zelemér;Zelemér Vasúti Megállóhely;47.6333;21.5833
3044293;Szőny;Szőny Vasúti Megállóhely;47.7359;18.1767
3051239;Hugyag;Hugyag Vasúti Megállóhely;48.0827;19.4231
3046194;Pósfa;Pósfa Vasúti Megállóhely;47.327;16.8558
3045410;Segesd;Segesd Vasúti Megállóhely;46.3333;17.3333
3054278;Csengőd;Csengőd Vasútállomás;46.7167;19.2833
3050021;Kisfái;Kisfái Vasúti Megállóhely;46.8833;19.8
3049035;Lábatlan;Lábatlan Vasútállomás;47.75;18.5167
3047671;Nagykarácsony;Nagykarácsony Vasútállomás;46.8667;18.7833
3051970;Győrszabadhegy;Győrszabadhegy Vasútállomás;47.6625;17.6475
3047160;Ölbő-Alsószeleste;Ölbő-Alsószeleste Vasútállomás;47.3003;16.8435
3048572;Magyarszerdahely;Magyarszerdahely Vasúti Megállóhely;46.55;17.0
719650;Jászboldogháza-Jánoshida;Jászboldogháza-Jánoshida Vasútállomás;47.3682;20.0005
715568;Szajol;Szajol Vasútállomás;47.1667;20.3
3055824;Ászár;Ászár Vasúti Megállóhely;47.5167;18.0167
3052643;Fertőendréd;Fertőendréd Vasútállomás;47.5896;16.9332
715612;Szabadkígyós;Szabadkígyós Vasútállomás;46.6;21.1333
3052646;Fertőboz;Fertőboz Vasútállomás;47.6253;16.6917
718887;Kismarja;Kismarja Vasútállomás;47.25;21.8167
3044573;Szentlőrinc;Szentlőrinc Vasútállomás;46.0333;18.0
3048575;Magyarszék;Magyarszék Vasútállomás;46.2;18.2
3052046;Gyömöre;Gyömöre Vasútállomás;47.4868;17.5598
721984;Buj;Buj Vasútállomás;48.1;21.65
3042917;Vica;Vica Vasúti Megállóhely;47.4777;17.1117
3042620;Zalakomár;Zalakomár Vasútállomás;46.5333;17.1833
3051811;Halesz;Halesz Vasúti Megállóhely;46.6667;19.8167
3049794;Kispest;Kispest Vasútállomás;47.4478;19.1575
3052635;Fertőújlak;Fertőújlak Vasútállomás;47.6792;16.8765
717343;Nagyhalász;Nagyhalász Vasútállomás;48.15;21.7667
714993;Tamásipuszta;Tamásipuszta Vasúti Megállóhely;47.6333;21.8
3043911;Tímár utca;Tímár utca vasúti megállóhely;47.5335;19.044
3054247;Cserdi-Helesfa;Cserdi-Helesfa Vasúti Megállóhely;46.0667;18.0
3046868;Ortaháza;Ortaháza Vasúti Megállóhely;46.6167;16.6833
3042611;Zalapatakalja;Zalapatakalja Vasúti Megállóhely;46.85;16.6
716953;Nyírábrány;Nyírábrány Vasútállomás;47.5239;22.0166
3043817;Tompa;Tompa Vasúti Megállóhely;46.2197;19.5885
719885;Hortobágy;Hortobágy Vasútállomás;47.5833;21.1667
3054941;Bodakajtor-Felsőszentiván;Bodakajtor-Felsőszentiván Vasútállomás;47.0738;18.5084
3046432;Pestszentlőrinc;Pestszentlőrinc Vasútállomás;47.4551;19.1826
720282;Hajdúnánás;Hajdúnánás Vasútállomás;47.8333;21.3333
3054873;Böhönye;Böhönye Vasútállomás;46.4106;17.4068
3048851;Lengyeltóti;Lengyeltóti Vasútállomás;46.65;17.6167
3044216;Tabdi;Tabdi Vasúti Megállóhely;46.6833;19.2833
3043277;Vác;Vác Vasútállomás;47.7833;19.1333
720318;Gyula;Gyula Vasútállomás;46.65;21.2833
3054943;Bodajk;Bodajk Vasútállomás;47.3167;18.25
714309;Vad;Vadna Vasúti Megállóhely;48.2833;20.55
3053937;Csopak;Csopak Vasúti Megállóhely;46.9833;17.9333
3051490;Hetény;Hetényegyháza Vasútállomás;46.9167;19.6
3052638;Fertőszentmiklós;Fertőszentmiklós Vasútállomás;47.5998;16.8597
722279;Biharkeresztes;Biharkeresztes Vasútállomás;47.1333;21.7167
716875;Nyulas;Nyulas Vasúti Megállóhely;47.5667;21.6
718877;Kismicske;Kismicske Vasúti Megállóhely;47.75;21.7
3050289;Kerepes;Kerepestarcsa Alsó Vasútállomás;47.55;19.2667
3053596;Dombay-tó;Dombay-tó Vasúti Megállóhely;46.1448;18.3985
3042632;Zalagyömörő;Zalagyömörő Vasúti Megállóhely;47.0167;17.2167
3055545;Balatonmáriafürdő;Balatonmáriafürdő Vasútállomás;46.7042;17.3745
715838;Sátoraljaújhely;Sátoraljaújhely Vasútállomás;48.3857;21.6577
3046202;Porrogszentkirály;Porrogszentkirály Vasúti Megállóhely;46.25;17.0167
3044113;Tarjánpuszta;Tarjánpuszta Vasútállomás;47.5;17.7833
722189;Bodrogkeresztúr;Bodrogkeresztúr Vasútállomás;48.1667;21.3667
3051508;Heresznye;Heresznye Vasúti Megállóhely;46.0667;17.3
3051303;Hosszúberek-Péteri;Hosszúberek-Péteri Vasúti Megállóhely;47.3721;19.3902
3046086;Pusztaszabolcs;Pusztaszabolcs Vasútállomás;47.1333;18.7667
3051617;Hatvan;Hatvan Vasútállomás;47.6667;19.6667
714738;Tiszalúc;Tiszalúc Vasútállomás;48.0377;21.0726
3045967;Rákosliget;Rákosliget Vasúti Megállóhely;47.4862;19.2576
3047247;Nyírlak;Nyírlak Vasúti Megállóhely;47.0;17.25
3047618;Nagymaros;Nagymaros Vasútállomás;47.7833;18.95
3054575;Bük;Bük Vasútállomás;47.3833;16.75
717792;Mártély;Mártély Vasútállomás;46.4833;20.2333
715674;Sóstó;Sóstó Vasúti Megállóhely;48.0;21.7333
3048385;Máriaudvar;Máriaudvar Vasúti Megállóhely;47.75;19.1667
3055688;Bágyogszovát;Bágyogszovát Vasúti Megállóhely;47.6231;17.3213
3048255;Mecsekalja-Cserkút;Mecsekalja-Cserkút Vasútállomás;46.0667;18.15
3044577;Szentléránt;Szentléránt Vasúti Megállóhely;47.1167;16.75
716902;Nyírmihálydi;Nyírmihálydi Vasúti Megállóhely;47.7333;21.9833
3046046;Rábatamási;Rábatamási Vasútállomás;47.5929;17.1616
3042635;Zalaegerszeg;Zalaegerszeg Vasútállomás;46.85;16.85
3048081;Mihályháza;Mihályháza Vasúti Megállóhely;47.3179;17.3298
3052047;Gyömöre-Tét;Gyömöre-Tét Vasúti Megállóhely;47.4833;17.5667
3045019;Szabadságtelep;Szabadságtelep Vasúti Megállóhely;47.55;19.2167
3051279;Hosszúhetény;Hosszúhetény Vasúti Megállóhely;46.1354;18.3671
3044755;Szekszárd;Szekszárd Vasútállomás;46.3333;18.7167
3044950;Szalatnak;Szalatnak Vasúti Megállóhely;46.2833;18.2833
719097;Kettőshalom;Kettőshalom Vasúti Megállóhely;46.6833;20.0167
3048682;Lukácsháza;Lukácsháza Vasútállomás;47.341;16.5797
3053556;Dorog;Dorog Vasútállomás;47.7167;18.7333
3047599;Nagypall;Nagypall Vasúti Megállóhely;46.1479;18.4601
714719;Tiszasas;Tiszasas Vasútállomás;46.8167;20.0667
3054483;Cinkota;Cinkota Vasútállomás;47.5201;19.2183
3047306;Nyárlőrinc;Nyárlőrinc Vasútállomás;46.8667;19.85
3045486;Sárvár;Sárvár Vasútállomás;47.259;16.9293
3045228;Somogyjád;Somogyjád Vasútállomás;46.5;17.7
720057;Hejőkeresztúr;Hejőkeresztúr Vasútállomás;47.9667;20.8833
719518;Kakasszék;Kakasszék Vasúti Megállóhely;46.5667;20.6
3047610;Nagynyárád;Nagynyárád Vasúti Megállóhely;45.9578;18.5871
720702;Fürjes;Fürjes Vasúti Megállóhely;46.65;21.0
3053031;Fehérvárcsurgó;Fehérvárcsurgó Vasúti Megállóhely;47.2833;18.2833
722054;Borsodszirák;Borsodszirák Vasúti Megállóhely;48.2667;20.7667
3047403;Nemeskocs;Nemeskocs Vasúti Megállóhely;47.2032;17.1889
718172;Látókép;Látókép Vasúti Megállóhely;47.5667;21.5
715271;Szihalom;Szihalom Vasúti Megállóhely;47.7667;20.5
3051962;Győrvár;Győrvár Vasúti Megállóhely;46.9833;16.85
714943;Tarnaszentmiklós;Tarnaszentmiklós Vasútállomás;47.55;20.4
3044296;Szőny-Déli;Szőny-Déli Vasúti Megállóhely;47.7358;18.1423
3042639;Zalacséb-Salomvár;Zalacséb-Salomvár Vasútállomás;46.8667;16.6667
3051108;Ipolyszög;Ipolyszög Vasúti Megállóhely;48.05;19.2167
716134;Reje;Reje Vasúti Megállóhely;47.9833;21.2167
3047901;Mór;Mór Vasútállomás;47.35;18.2
716995;Novajidrány;Novajidrány Vasútállomás;48.4;21.1667
3050209;Keszthely;Keszthely Vasútállomás;46.7667;17.2667
3053238;Erdősmecske;Erdősmecske Vasútállomás;46.1508;18.5166
714545;Tótkomlós;Tótkomlós Vasútállomás;46.4;20.7333
720240;Halászlak;Halászlak Vasúti Megállóhely;46.9167;20.5667
3047691;Nagyicce;Nagyicce Vasútállomás;47.5074;19.1688
716495;Penyige;Penyige Vasútállomás;48.0;22.5667
3055805;Attala;Attala Vasúti Megállóhely;46.3833;18.0667
3043376;Újudvar;Újudvar Vasútállomás;46.5205;16.9806
3053397;Écs;Écs Vasúti Megállóhely;47.5661;17.7203
3043094;Várpalota;Várpalota Vasútállomás;47.1949;18.1496
3052072;Gyékényes;Gyékényes Vasútállomás;46.2492;16.9548
3046229;Pomáz;Pomáz Vasútállomás;47.65;19.0333
3043007;Vejke;Vejke Vasúti Megállóhely;47.5662;16.73
722117;Boldva;Boldva Vasútállomás;48.2167;20.8
3044806;Szécsény;Szécsény Vasútállomás;48.1;19.5167
3045978;Rákoscsaba-Újtelep;Rákoscsaba-Újtelep Vasúti Megállóhely;47.4873;19.2715
3043208;Vámosgyörk;Vámosgyörk Vasútállomás;47.6833;19.9167
3044066;Tát;Tát Vasúti Megállóhely;47.75;18.6333
3045509;Sárosd;Sárosd Vasútállomás;47.05;18.65
3047617;Nagymaros-Visegrád;Nagymaros-Visegrád Vasúti Megállóhely;47.8;18.9667
714885;Telekgerendás;Telekgerendás Vasútállomás;46.65;20.9667
722277;Biharnagybajom;Biharnagybajom Vasútállomás;47.2;21.2333
3056396;Agárd;Agárd Vasúti Megállóhely;47.1986;18.607
3055820;Aszófő;Aszófő Vasútállomás;46.9333;17.8333
3048448;Marcaltő;Marcaltő Vasúti Megállóhely;47.4278;17.3488
721118;Erdőtelek;Erdőtelek Vasútállomás;47.6833;20.3
716253;Pusztatemplom;Pusztatemplom Vasúti Megállóhely;46.6833;20.4
3053759;Délegyháza;Délegyháza Vasútállomás;47.25;19.0667
3046035;Rácalmás;Rácalmás Vasútállomás;47.0333;18.9167
3045977;Rákoscsaba;Rákoscsaba Vasútállomás;47.4926;19.2858
714918;Tedej;Tedej Vasúti Megállóhely;47.9;21.4167
3042592;Zalaszentlőrinc;Zalaszentlőrinc Vasúti Megállóhely;46.9167;16.8833
3049528;Kolontár;Kolontár Vasúti Megállóhely;47.0892;17.4769
3046767;Paks;Paks Vasútállomás;46.6;18.85
3050213;Keszőhidegkút-Gyönk;Keszőhidegkút-Gyönk Vasútállomás;46.6;18.4333
716938;Nyírcsászári;Nyírcsászári Vasúti Megállóhely;47.8667;22.1833
3045065;Sümeg;Sümeg Vasútállomás;46.9833;17.2667
3053496;Dunaalmás;Dunaalmás Vasúti Megállóhely;47.7333;18.3333
719648;Jászdózsa;Jászdózsa Vasútállomás;47.5606;20.0289
717942;Magyarbánhegyes;Magyarbánhegyes Vasútállomás;46.4333;20.9333
3044678;Szentendre;Szentendre Vasútállomás;47.6667;19.0833
3047895;Mosonmagyaróvár;Mosonmagyaróvár Vasútállomás;47.8667;17.2833
3055232;Békásmegyer;Békásmegyer Vasútállomás;47.5983;19.0548
716907;Nyírmada;Nyírmada Vasútállomás;48.05;22.1167
717030;Nekézseny;Nekézseny Vasúti Megállóhely;48.1667;20.4333
720021;Hernádszurdok;Hernádszurdok Vasúti Megállóhely;48.4833;21.2167
3054644;Budaörs;Budaörs Vasútállomás;47.4477;18.9681
3055560;Balatongyörök;Balatongyörök Vasúti Megállóhely;46.75;17.3667
3052766;Felsőrajk;Felsőrajk Vasútállomás;46.6833;17.0
3055023;Bikács;Bikács Vasúti Megállóhely;46.6829;18.6492
3048814;Levél;Levél Vasúti Megállóhely;47.8895;17.1931
716668;Ózd;Ózd Vasútállomás;48.2167;20.2833
3042922;Veszprém;Veszprém Vasútállomás;47.1191;17.9121
3044490;Szigetcsép;Szigetcsép Vasútállomás;47.2698;18.9561
3056353;Ajka;Ajka Vasútállomás;47.1068;17.5738
3053800;Darány;Darány Vasútállomás;45.9919;17.5982
721839;Csárdaszállás;Csárdaszállás Vasútállomás;46.8667;20.9333
3048124;Mesztegnyő;Mesztegnyő Vasútállomás;46.5079;17.433
3048429;Máriabesnyő;Máriabesnyő Vasúti Megállóhely;47.6;19.4
3046339;Pilisvörösvár;Pilisvörösvár Vasútállomás;47.6138;18.904
715458;Szarvas;Szarvas Vasútállomás;46.8667;20.5667
717938;Magyarcsanád;Magyarcsanád Vasútállomás;46.1667;20.6167
3043280;Vácrátót;Vácrátót Vasútállomás;47.7318;19.2224
3044693;Szenta;Szenta Vasútállomás;46.2667;17.1833
718957;Kisgyócs;Kisgyócs Vasúti Megállóhely;47.4167;20.6
3053762;Dejtár;Dejtár Vasútállomás;48.0447;19.1976
718549;Korlát-Vizsoly;Korlát-Vizsoly Vasúti Megállóhely;48.3667;21.2167
3048705;Lövő;Lövő Vasútállomás;47.5;16.7833
3055068;Berzence;Berzence Vasútállomás;46.2;17.15
3055589;Balatonalmádi;Balatonalmádi Vasútállomás;47.0282;18.0158
3056446;Aba-Sárkeresztúr;Aba-Sárkeresztúr Vasútállomás;47.0167;18.55
3049418;Környe;Környe Vasútállomás;47.5333;18.3333
3049884;Kiskunfélegyháza;Kiskunfélegyháza Vasútállomás;46.7;19.8333
3054641;Budapest-Déli;Budapest-Déli Pályaudvar;47.5003;19.0247
3042923;Veszprémvarsány;Veszprémvarsány Vasútállomás;47.4425;17.8195
3045695;Rudna;Rudnaykert Vasúti Megállóhely;47.7188;19.2566
3055554;Balatonkenese;Balatonkenese Vasútállomás;47.0333;18.1167
3056277;Almás;Almás Vasúti Megállóhely;46.1167;19.3333
716121;Remete;Remete Vasúti Megállóhely;46.6833;21.3
3044200;Tab;Tab Vasútállomás;46.7333;18.0333
722952;Almár;Almár Vasúti Megállóhely;47.9667;20.35
3051222;Hűvösvölgy;Hűvösvölgy Vasútállomás;47.5417;18.9635
721244;Edelény;Edelény Vasútállomás;48.3;20.75
3055726;Badacsony;Badacsony Vasúti Megállóhely;46.7833;17.5
714516;Tunyogmatolcs;Tunyogmatolcs Vasútállomás;47.9667;22.45
3049652;Klotildliget;Klotildliget Vasúti Megállóhely;47.636;18.8508
715765;Sirató;Sirató Vasúti Megállóhely;46.85;20.6167
3042976;Vép;Vép Vasútállomás;47.2357;16.7275
3049514;Komárom;Komárom Vasútállomás;47.75;18.1167
8410968;Nagycenk-Hidegség;Nagycenk-Hidegség Vasúti Megállóhely;47.6147;16.7155
3056447;Abaliget;Abaliget Vasútállomás;46.1519;18.073
722848;Apátfalva;Apátfalva Vasútállomás;46.1833;20.5667
3046364;Pettend;Pettend Vasúti Megállóhely;47.2667;18.7167
3048370;Márkó;Márkó Vasúti Megállóhely;47.1272;17.8131
3044096;Tar;Tar Vasútállomás;47.9562;19.7474
3044813;Széchenyi-hegy;Széchenyi-hegy Vasútállomás;47.4937;18.9766
3047764;Nagydorog;Nagydorog Vasútállomás;46.6167;18.65
3046735;Palkonya;Palkonya Vasúti Megállóhely;45.8833;18.4
3047959;Mohora;Mohora Vasútállomás;47.9833;19.35
3052377;Gárdony;Gárdony Vasútállomás;47.2053;18.6237
3049000;Lajosmizse;Lajosmizse Vasútállomás;47.0284;19.5426
3051119;Inota;Inota Vasúti Megállóhely;47.1974;18.1712
721606;Csokvaomány;Csokvaomány Vasútállomás;48.1667;20.15
715392;Székkutas;Székkutas Vasútállomás;46.5167;20.55
3055552;Balatonkeresztúr;Balatonkeresztúr Vasútállomás;46.7;17.3833
3046865;Őrtilos;Őrtilos Vasútállomás;46.2984;16.8876
3055201;Bélavár;Bélavár Vasúti Megállóhely;46.1333;17.2
722589;Bánkút;Bánkút Vasútállomás;46.5;21.1
3046738;Páli-Vadosfa;Páli-Vadosfa Vasúti Megállóhely;47.4924;17.1381
3044468;Szigetvár;Szigetvár Vasútállomás;46.05;17.8167
722340;Berekfürdő;Berekfürdő Vasúti Megállóhely;47.3833;20.8333
714683;Tisztavíz;Tisztavíz Vasúti Megállóhely;47.65;21.8333
3047557;Nagysimonyi;Nagysimonyi Vasúti Megállóhely;47.2656;17.0575
720490;Gönc;Gönc Vasútállomás;48.4667;21.2667
3051967;Győrszemere;Győrszemere Vasútállomás;47.5657;17.5849
3051764;Hanság-Nagyerdő;Hanság-Nagyerdő Vasúti Megállóhely;47.7411;17.1891
721468;Debrecen-Kondoros;Debrecen-Kondoros Vasúti Megállóhely;47.5333;21.7167
715959;Sajókeresztúr;Sajókeresztúr Vasúti Megállóhely;48.1667;20.7833
714908;Téglás;Téglás Vasútállomás;47.7167;21.6833
714784;Tiszacsege;Tiszacsege Vasútállomás;47.7;21.0
3051879;Hajmáskér;Hajmáskér Vasútállomás;47.141;18.0097
3053914;Csorna;Csorna Vasútállomás;47.602;17.2493
3053471;Dunakömlőd;Dunakömlőd Vasúti Megállóhely;46.6667;18.8833
3050167;Kilimán;Kilimán Vasúti Megállóhely;46.6333;17.0
717233;Nagylapos;Nagylapos Vasútállomás;46.9833;20.75
3048354;Márok;Márok Vasúti Megállóhely;45.8877;18.5
3054532;Celldömölk;Celldömölk Vasútállomás;47.2606;17.1547
3050906;Jászberény;Jászberény Vasútállomás;47.4833;19.9
3046395;Pétfürdő;Pétfürdő Vasútállomás;47.1673;18.122
3046530;Pécel;Pécel Vasútállomás;47.4937;19.3371
3053273;Érdliget;Érdliget Vasúti Megállóhely;47.4;18.9333
3045435;Sávoly;Sávoly Vasútállomás;46.609;17.2353
3044256;Szügy;Szügy Vasúti Megállóhely;48.0333;19.3333
3047609;Nagynyír;Nagynyír Vasúti Megállóhely;46.95;19.5833
3053289;Eplény;Eplény Vasútállomás;47.1953;17.9194
717377;Nagyér;Nagyér Vasúti Megállóhely;46.3667;20.75
720363;Gyoma;Gyoma Vasútállomás;46.9333;20.8167
3055178;Belsőbáránd;Belsőbáránd Vasúti Megállóhely;47.1;18.5
3053511;Drégely;Drégely Vasúti Megállóhely;48.0422;19.0555
716716;Országút;Országút Vasúti Megállóhely;46.4833;21.2
3043861;Tokod;Tokod Vasútállomás;47.7333;18.6833
716353;Polgár;Polgár Vasútállomás;47.8667;21.1333
721160;Emőd;Emőd Vasútállomás;47.9333;20.8333
716379;Pitvaros;Pitvaros Vasúti Megállóhely;46.3167;20.7667
716827;Olaszliszka-Tolcsva;Olaszliszka-Tolcsva Vasútállomás;47.25;21.45
3050479;Katonatelep;Katonatelep Vasútállomás;46.9667;19.7167
721466;Debrecen-Szabadságtelep;Debrecen-Szabadságtelep Vasúti Megállóhely;47.5333;21.6833
718752;Kistokaj;Kistokaj Vasúti Megállóhely;48.0333;20.8333
3053436;Dunaújváros;Dunaújváros Külső Vasúti Megállóhely;46.9833;18.9
722332;Berente;Berente Vasúti Megállóhely;48.2333;20.6833
718693;Kocsord;Kocsord Vasúti Megállóhely;47.95;20.3667
3043469;Újpest;Újpest Vasúti Megállóhely;47.5582;19.08
3045253;Som-Nagyberény;Som-Nagyberény Vasúti Megállóhely;46.8034;18.1491
3053252;Erdőkertes;Erdőkertes Vasúti Megállóhely;47.663;19.2959
715008;Taktaharkány;Taktaharkány Vasútállomás;48.1;21.1333
3050908;Jászárokszállás;Jászárokszállás Vasútállomás;47.6333;19.9833
3045973;Rákoshegy;Rákoshegy Vasútállomás;47.4686;19.2455
719325;Katraszél;Katraszél Vasúti Megállóhely;46.3833;20.4167
714701;Tiszatenyő;Tiszatenyő Vasútállomás;47.1333;20.3667
3051971;Boráros tér;Boráros tér Vasútállomás;47.4788;19.0665
3046348;Piliscsév;Piliscsév Vasúti Megállóhely;47.6667;18.8
3052068;Gyenesdiás;Gyenesdiás Vasúti Megállóhely;46.7667;17.2833
3046830;Ötfa;Ötfa Vasúti Megállóhely;46.5333;19.7333
3052540;Fótújfalu;Fótújfalu Vasúti Megállóhely;47.6167;19.2
3054788;Börgönd;Börgönd Vasútállomás;47.1404;18.5162